[
    {
        "stop_lon": 27.55848,
        "stop_id": 1,
        "stop_code": "",
        "stop_lat": 47.19052,
        "stop_name": "Copou",
        "location_type": 0
    },
    {
        "stop_lon": 27.56235,
        "stop_id": 2,
        "stop_code": "",
        "stop_lat": 47.18646,
        "stop_name": "Stadion",
        "location_type": 0
    },
    {
        "stop_lon": 27.56391,
        "stop_id": 3,
        "stop_code": "",
        "stop_lat": 47.18458,
        "stop_name": "George Coșbuc",
        "location_type": 0
    },
    {
        "stop_lon": 27.56736,
        "stop_id": 4,
        "stop_code": "",
        "stop_lat": 47.18056,
        "stop_name": "Triumf",
        "location_type": 0
    },
    {
        "stop_lon": 27.57204,
        "stop_id": 5,
        "stop_code": "",
        "stop_lat": 47.17496,
        "stop_name": "Universitate",
        "location_type": 0
    },
    {
        "stop_lon": 27.57679,
        "stop_id": 6,
        "stop_code": "",
        "stop_lat": 47.16888,
        "stop_name": "Piata M. Eminescu",
        "location_type": 0
    },
    {
        "stop_lon": 27.580803,
        "stop_id": 7,
        "stop_code": "",
        "stop_lat": 47.165551,
        "stop_name": "Piața Unirii",
        "location_type": 0
    },
    {
        "stop_lon": 27.58542,
        "stop_id": 8,
        "stop_code": "",
        "stop_lat": 47.16414,
        "stop_name": "Filarmonică",
        "location_type": 0
    },
    {
        "stop_lon": 27.59092,
        "stop_id": 9,
        "stop_code": "",
        "stop_lat": 47.16472,
        "stop_name": "Tg. Cucu",
        "location_type": 0
    },
    {
        "stop_lon": 27.59465,
        "stop_id": 10,
        "stop_code": "",
        "stop_lat": 47.16654,
        "stop_name": "Podu de Fier",
        "location_type": 0
    },
    {
        "stop_lon": 27.5969,
        "stop_id": 11,
        "stop_code": "",
        "stop_lat": 47.16321,
        "stop_name": "Pădurii",
        "location_type": 0
    },
    {
        "stop_lon": 27.60512212,
        "stop_id": 12,
        "stop_code": "",
        "stop_lat": 47.16256058,
        "stop_name": "Ateneu",
        "location_type": 0
    },
    {
        "stop_lon": 27.61342973,
        "stop_id": 13,
        "stop_code": "",
        "stop_lat": 47.16002786,
        "stop_name": "Dr. Savini",
        "location_type": 0
    },
    {
        "stop_lon": 27.61879812,
        "stop_id": 14,
        "stop_code": "",
        "stop_lat": 47.15924156,
        "stop_name": "Flora",
        "location_type": 0
    },
    {
        "stop_lon": 27.6238705,
        "stop_id": 15,
        "stop_code": "",
        "stop_lat": 47.15628843,
        "stop_name": "Tătărași Sud",
        "location_type": 0
    },
    {
        "stop_lon": 27.6215103,
        "stop_id": 16,
        "stop_code": "",
        "stop_lat": 47.15207814,
        "stop_name": "Pod Metalurgie",
        "location_type": 0
    },
    {
        "stop_lon": 27.62052766,
        "stop_id": 17,
        "stop_code": "",
        "stop_lat": 47.14892326,
        "stop_name": "C.F.S.II",
        "location_type": 0
    },
    {
        "stop_lon": 27.62033247,
        "stop_id": 18,
        "stop_code": "",
        "stop_lat": 47.14556411,
        "stop_name": "Piața Ing. V. Săhleanu",
        "location_type": 0
    },
    {
        "stop_lon": 27.61752,
        "stop_id": 19,
        "stop_code": "",
        "stop_lat": 47.14594,
        "stop_name": "C.F.S.",
        "location_type": 0
    },
    {
        "stop_lon": 27.61115017,
        "stop_id": 20,
        "stop_code": "",
        "stop_lat": 47.146797,
        "stop_name": "Baza 3",
        "location_type": 0
    },
    {
        "stop_lon": 27.58930349,
        "stop_id": 23,
        "stop_code": "",
        "stop_lat": 47.15093309,
        "stop_name": "Podu Roș (1)",
        "location_type": 0
    },
    {
        "stop_lon": 27.58734652,
        "stop_id": 24,
        "stop_code": "",
        "stop_lat": 47.15386617,
        "stop_name": "Sala Polivalentă (Sporturilor)",
        "location_type": 0
    },
    {
        "stop_lon": 27.58711123,
        "stop_id": 25,
        "stop_code": "",
        "stop_lat": 47.15922758,
        "stop_name": "Palatul Culturii",
        "location_type": 0
    },
    {
        "stop_lon": 27.59414142,
        "stop_id": 26,
        "stop_code": "",
        "stop_lat": 47.16139161,
        "stop_name": "Muzeul Municipal \u201eRegina Maria\u201c",
        "location_type": 0
    },
    {
        "stop_lon": 27.59105,
        "stop_id": 27,
        "stop_code": "",
        "stop_lat": 47.16428,
        "stop_name": "Tg. Cucu",
        "location_type": 0
    },
    {
        "stop_lon": 27.58569157,
        "stop_id": 28,
        "stop_code": "",
        "stop_lat": 47.16410517,
        "stop_name": "Filarmonică",
        "location_type": 0
    },
    {
        "stop_lon": 27.580742,
        "stop_id": 29,
        "stop_code": "",
        "stop_lat": 47.165517,
        "stop_name": "Piața Unirii",
        "location_type": 0
    },
    {
        "stop_lon": 27.57686234,
        "stop_id": 30,
        "stop_code": "",
        "stop_lat": 47.16865733,
        "stop_name": "Piața Mihai Eminescu",
        "location_type": 0
    },
    {
        "stop_lon": 27.57179996,
        "stop_id": 31,
        "stop_code": "",
        "stop_lat": 47.17539658,
        "stop_name": "Universitate",
        "location_type": 0
    },
    {
        "stop_lon": 27.56729122,
        "stop_id": 32,
        "stop_code": "",
        "stop_lat": 47.18083625,
        "stop_name": "Triumf",
        "location_type": 0
    },
    {
        "stop_lon": 27.56494,
        "stop_id": 33,
        "stop_code": "",
        "stop_lat": 47.1835,
        "stop_name": "George Coșbuc",
        "location_type": 0
    },
    {
        "stop_lon": 27.56313702,
        "stop_id": 34,
        "stop_code": "",
        "stop_lat": 47.1856602,
        "stop_name": "Stadion",
        "location_type": 0
    },
    {
        "stop_lon": 27.55908,
        "stop_id": 35,
        "stop_code": "",
        "stop_lat": 47.19082,
        "stop_name": "Copou",
        "location_type": 0
    },
    {
        "stop_lon": 27.53368,
        "stop_id": 36,
        "stop_code": "",
        "stop_lat": 47.17292,
        "stop_name": "Pacurari",
        "location_type": 0
    },
    {
        "stop_lon": 27.53860211,
        "stop_id": 37,
        "stop_code": "",
        "stop_lat": 47.17360859,
        "stop_name": "OMV Păcurari",
        "location_type": 0
    },
    {
        "stop_lon": 27.55230072,
        "stop_id": 39,
        "stop_code": "",
        "stop_lat": 47.17425422,
        "stop_name": "Moara 1 Mai",
        "location_type": 0
    },
    {
        "stop_lon": 27.55908886,
        "stop_id": 40,
        "stop_code": "",
        "stop_lat": 47.173634,
        "stop_name": "Petru Poni",
        "location_type": 0
    },
    {
        "stop_lon": 27.57091058,
        "stop_id": 41,
        "stop_code": "",
        "stop_lat": 47.17086556,
        "stop_name": "Blocuri Păcurari",
        "location_type": 0
    },
    {
        "stop_lon": 27.58082524,
        "stop_id": 42,
        "stop_code": "",
        "stop_lat": 47.16791686,
        "stop_name": "Piața Independenței",
        "location_type": 0
    },
    {
        "stop_lon": 27.59560761,
        "stop_id": 43,
        "stop_code": "",
        "stop_lat": 47.16138066,
        "stop_name": "Muzeul Municipal \u201eRegina Maria\u201c",
        "location_type": 0
    },
    {
        "stop_lon": 27.60162717,
        "stop_id": 44,
        "stop_code": "",
        "stop_lat": 47.15848857,
        "stop_name": "Bucșinescu",
        "location_type": 0
    },
    {
        "stop_lon": 27.60344,
        "stop_id": 45,
        "stop_code": "",
        "stop_lat": 47.15647,
        "stop_name": "Tudor Vladimirescu",
        "location_type": 0
    },
    {
        "stop_lon": 27.59279872,
        "stop_id": 48,
        "stop_code": "",
        "stop_lat": 47.14666587,
        "stop_name": "Casa Sindicatelor",
        "location_type": 0
    },
    {
        "stop_lon": 27.60017077,
        "stop_id": 49,
        "stop_code": "",
        "stop_lat": 47.14134074,
        "stop_name": "Frigorifer",
        "location_type": 0
    },
    {
        "stop_lon": 27.60451609,
        "stop_id": 50,
        "stop_code": "",
        "stop_lat": 47.13713332,
        "stop_name": "Cămine C.U.G.",
        "location_type": 0
    },
    {
        "stop_lon": 27.60020673,
        "stop_id": 51,
        "stop_code": "",
        "stop_lat": 47.13684733,
        "stop_name": "Continental",
        "location_type": 0
    },
    {
        "stop_lon": 27.59384766,
        "stop_id": 52,
        "stop_code": "",
        "stop_lat": 47.13634296,
        "stop_name": "Liceul C.U.G.",
        "location_type": 0
    },
    {
        "stop_lon": 27.58675972,
        "stop_id": 53,
        "stop_code": "",
        "stop_lat": 47.13550826,
        "stop_name": "Blocuri Cetățuia",
        "location_type": 0
    },
    {
        "stop_lon": 27.57600344,
        "stop_id": 54,
        "stop_code": "",
        "stop_lat": 47.13410093,
        "stop_name": "C.U.G. I",
        "location_type": 0
    },
    {
        "stop_lon": 27.57564342,
        "stop_id": 55,
        "stop_code": "",
        "stop_lat": 47.13366441,
        "stop_name": "C.U.G. I",
        "location_type": 0
    },
    {
        "stop_lon": 27.58650249,
        "stop_id": 56,
        "stop_code": "",
        "stop_lat": 47.13541323,
        "stop_name": "Blocuri Cetățuia",
        "location_type": 0
    },
    {
        "stop_lon": 27.60037091,
        "stop_id": 57,
        "stop_code": "",
        "stop_lat": 47.13682516,
        "stop_name": "Continental",
        "location_type": 0
    },
    {
        "stop_lon": 27.60481128,
        "stop_id": 58,
        "stop_code": "",
        "stop_lat": 47.13710005,
        "stop_name": "Cămine C.U.G.",
        "location_type": 0
    },
    {
        "stop_lon": 27.59933885,
        "stop_id": 59,
        "stop_code": "",
        "stop_lat": 47.14205166,
        "stop_name": "Frigorifer",
        "location_type": 0
    },
    {
        "stop_lon": 27.59476196,
        "stop_id": 60,
        "stop_code": "",
        "stop_lat": 47.14527801,
        "stop_name": "Casa Sindicatelor",
        "location_type": 0
    },
    {
        "stop_lon": 27.59531376,
        "stop_id": 61,
        "stop_code": "",
        "stop_lat": 47.14915672,
        "stop_name": "Țesătura",
        "location_type": 0
    },
    {
        "stop_lon": 27.60345,
        "stop_id": 63,
        "stop_code": "",
        "stop_lat": 47.15655,
        "stop_name": "Tudor Vladimirescu",
        "location_type": 0
    },
    {
        "stop_lon": 27.60007861,
        "stop_id": 64,
        "stop_code": "",
        "stop_lat": 47.1589884,
        "stop_name": "Bucșinescu",
        "location_type": 0
    },
    {
        "stop_lon": 27.59609923,
        "stop_id": 65,
        "stop_code": "",
        "stop_lat": 47.16101289,
        "stop_name": "Muzeul Municipal \u201eRegina Maria\u201c",
        "location_type": 0
    },
    {
        "stop_lon": 27.58935,
        "stop_id": 66,
        "stop_code": "",
        "stop_lat": 47.16582,
        "stop_name": "Tg. Cucu",
        "location_type": 0
    },
    {
        "stop_lon": 27.57917,
        "stop_id": 67,
        "stop_code": "",
        "stop_lat": 47.16858,
        "stop_name": "Piața Independenței",
        "location_type": 0
    },
    {
        "stop_lon": 27.5711973,
        "stop_id": 68,
        "stop_code": "",
        "stop_lat": 47.17088042,
        "stop_name": "Blocuri Păcurari",
        "location_type": 0
    },
    {
        "stop_lon": 27.55843357,
        "stop_id": 69,
        "stop_code": "",
        "stop_lat": 47.17355456,
        "stop_name": "Petru Poni",
        "location_type": 0
    },
    {
        "stop_lon": 27.55045548,
        "stop_id": 70,
        "stop_code": "",
        "stop_lat": 47.17452737,
        "stop_name": "Moara 1 Mai",
        "location_type": 0
    },
    {
        "stop_lon": 27.53737539,
        "stop_id": 72,
        "stop_code": "",
        "stop_lat": 47.17352493,
        "stop_name": "OMV Păcurari",
        "location_type": 0
    },
    {
        "stop_lon": 27.53370944,
        "stop_id": 73,
        "stop_code": "",
        "stop_lat": 47.17308338,
        "stop_name": "Păcurari",
        "location_type": 0
    },
    {
        "stop_lon": 27.65957,
        "stop_id": 74,
        "stop_code": "",
        "stop_lat": 47.15177,
        "stop_name": "Dancu",
        "location_type": 0
    },
    {
        "stop_lon": 27.65500939,
        "stop_id": 75,
        "stop_code": "",
        "stop_lat": 47.15238728,
        "stop_name": "Blocuri Dancu",
        "location_type": 0
    },
    {
        "stop_lon": 27.64847761,
        "stop_id": 76,
        "stop_code": "",
        "stop_lat": 47.15293514,
        "stop_name": "Rond vechi Dancu",
        "location_type": 0
    },
    {
        "stop_lon": 27.64285556,
        "stop_id": 77,
        "stop_code": "",
        "stop_lat": 47.15265046,
        "stop_name": "Hotel Amadeo",
        "location_type": 0
    },
    {
        "stop_lon": 27.63644072,
        "stop_id": 78,
        "stop_code": "",
        "stop_lat": 47.15191646,
        "stop_name": "Phoenix",
        "location_type": 0
    },
    {
        "stop_lon": 27.63258904,
        "stop_id": 79,
        "stop_code": "",
        "stop_lat": 47.15377262,
        "stop_name": "I.P.A.",
        "location_type": 0
    },
    {
        "stop_lon": 27.62392,
        "stop_id": 80,
        "stop_code": "",
        "stop_lat": 47.15622,
        "stop_name": "Tătărași Sud",
        "location_type": 0
    },
    {
        "stop_lon": 27.62066686,
        "stop_id": 81,
        "stop_code": "",
        "stop_lat": 47.15865629,
        "stop_name": "Flora",
        "location_type": 0
    },
    {
        "stop_lon": 27.61464086,
        "stop_id": 82,
        "stop_code": "",
        "stop_lat": 47.15986589,
        "stop_name": "Dr. Savini",
        "location_type": 0
    },
    {
        "stop_lon": 27.59774709,
        "stop_id": 84,
        "stop_code": "",
        "stop_lat": 47.16315933,
        "stop_name": "Pădurii",
        "location_type": 0
    },
    {
        "stop_lon": 27.57301583,
        "stop_id": 85,
        "stop_code": "",
        "stop_lat": 47.16786484,
        "stop_name": "Voința",
        "location_type": 0
    },
    {
        "stop_lon": 27.56849347,
        "stop_id": 86,
        "stop_code": "",
        "stop_lat": 47.16825281,
        "stop_name": "Str. Bacinschi",
        "location_type": 0
    },
    {
        "stop_lon": 27.57052,
        "stop_id": 87,
        "stop_code": "",
        "stop_lat": 47.16629,
        "stop_name": "Gară",
        "location_type": 0
    },
    {
        "stop_lon": 27.63131116,
        "stop_id": 88,
        "stop_code": "",
        "stop_lat": 47.154274,
        "stop_name": "I.P.A.",
        "location_type": 0
    },
    {
        "stop_lon": 27.6361,
        "stop_id": 89,
        "stop_code": "",
        "stop_lat": 47.15202,
        "stop_name": "Phoenix",
        "location_type": 0
    },
    {
        "stop_lon": 27.64185524,
        "stop_id": 90,
        "stop_code": "",
        "stop_lat": 47.15233764,
        "stop_name": "Hotel Amadeo",
        "location_type": 0
    },
    {
        "stop_lon": 27.64853734,
        "stop_id": 91,
        "stop_code": "",
        "stop_lat": 47.15300937,
        "stop_name": "Rond vechi Dancu",
        "location_type": 0
    },
    {
        "stop_lon": 27.65601951,
        "stop_id": 92,
        "stop_code": "",
        "stop_lat": 47.15232904,
        "stop_name": "Blocuri Dancu",
        "location_type": 0
    },
    {
        "stop_lon": 27.53737,
        "stop_id": 94,
        "stop_code": "",
        "stop_lat": 47.17238,
        "stop_name": "Canta",
        "location_type": 0
    },
    {
        "stop_lon": 27.54526171,
        "stop_id": 95,
        "stop_code": "",
        "stop_lat": 47.17321321,
        "stop_name": "Sergent Grigore Ioan",
        "location_type": 0
    },
    {
        "stop_lon": 27.55007867,
        "stop_id": 96,
        "stop_code": "",
        "stop_lat": 47.17347616,
        "stop_name": "Moara 1 Mai",
        "location_type": 0
    },
    {
        "stop_lon": 27.56152999,
        "stop_id": 97,
        "stop_code": "",
        "stop_lat": 47.17094426,
        "stop_name": "Octav Bancilă",
        "location_type": 0
    },
    {
        "stop_lon": 27.56833568,
        "stop_id": 98,
        "stop_code": "",
        "stop_lat": 47.16744364,
        "stop_name": "Str. Bacinschi",
        "location_type": 0
    },
    {
        "stop_lon": 27.571051,
        "stop_id": 99,
        "stop_code": "",
        "stop_lat": 47.16584611,
        "stop_name": "Gară",
        "location_type": 0
    },
    {
        "stop_lon": 27.57312,
        "stop_id": 100,
        "stop_code": "",
        "stop_lat": 47.16143,
        "stop_name": "Pasaj Alexandru cel Bun",
        "location_type": 0
    },
    {
        "stop_lon": 27.57417443,
        "stop_id": 101,
        "stop_code": "",
        "stop_lat": 47.15655732,
        "stop_name": "Podul de Piatră",
        "location_type": 0
    },
    {
        "stop_lon": 27.57759371,
        "stop_id": 102,
        "stop_code": "",
        "stop_lat": 47.14996091,
        "stop_name": "Gara Internațională",
        "location_type": 0
    },
    {
        "stop_lon": 27.58037378,
        "stop_id": 103,
        "stop_code": "",
        "stop_lat": 47.13404182,
        "stop_name": "Bazar",
        "location_type": 0
    },
    {
        "stop_lon": 27.5907438,
        "stop_id": 104,
        "stop_code": "",
        "stop_lat": 47.14644895,
        "stop_name": "Piața Nicolina",
        "location_type": 0
    },
    {
        "stop_lon": 27.61028,
        "stop_id": 105,
        "stop_code": "",
        "stop_lat": 47.13455,
        "stop_name": "Pleiada",
        "location_type": 0
    },
    {
        "stop_lon": 27.6140734,
        "stop_id": 106,
        "stop_code": "",
        "stop_lat": 47.13051324,
        "stop_name": "Spitalul nr. 7",
        "location_type": 0
    },
    {
        "stop_lon": 27.61642474,
        "stop_id": 107,
        "stop_code": "",
        "stop_lat": 47.12752912,
        "stop_name": "Centrofarm",
        "location_type": 0
    },
    {
        "stop_lon": 27.62217884,
        "stop_id": 108,
        "stop_code": "",
        "stop_lat": 47.12384327,
        "stop_name": "Hanul Trei Sarmale",
        "location_type": 0
    },
    {
        "stop_lon": 27.62516737,
        "stop_id": 109,
        "stop_code": "",
        "stop_lat": 47.1213336,
        "stop_name": "Școala Generală nr. 2",
        "location_type": 0
    },
    {
        "stop_lon": 27.62975425,
        "stop_id": 110,
        "stop_code": "",
        "stop_lat": 47.11901483,
        "stop_name": "Plopii fără soț",
        "location_type": 0
    },
    {
        "stop_lon": 27.63191138,
        "stop_id": 111,
        "stop_code": "",
        "stop_lat": 47.11678873,
        "stop_name": "Bucium",
        "location_type": 0
    },
    {
        "stop_lon": 27.63214052,
        "stop_id": 112,
        "stop_code": "",
        "stop_lat": 47.11659634,
        "stop_name": "Bucium",
        "location_type": 0
    },
    {
        "stop_lon": 27.63012663,
        "stop_id": 113,
        "stop_code": "",
        "stop_lat": 47.11885285,
        "stop_name": "Plopii fără soț",
        "location_type": 0
    },
    {
        "stop_lon": 27.62584671,
        "stop_id": 114,
        "stop_code": "",
        "stop_lat": 47.12104116,
        "stop_name": "Școala Generală nr. 2",
        "location_type": 0
    },
    {
        "stop_lon": 27.62113675,
        "stop_id": 115,
        "stop_code": "",
        "stop_lat": 47.12447526,
        "stop_name": "Hanul Trei Sarmale",
        "location_type": 0
    },
    {
        "stop_lon": 27.61622733,
        "stop_id": 116,
        "stop_code": "",
        "stop_lat": 47.12788005,
        "stop_name": "Centrofarm",
        "location_type": 0
    },
    {
        "stop_lon": 27.61383918,
        "stop_id": 117,
        "stop_code": "",
        "stop_lat": 47.13055482,
        "stop_name": "Spitalul nr. 7",
        "location_type": 0
    },
    {
        "stop_lon": 27.60933593,
        "stop_id": 118,
        "stop_code": "",
        "stop_lat": 47.13529372,
        "stop_name": "Pleiada",
        "location_type": 0
    },
    {
        "stop_lon": 27.58943127,
        "stop_id": 119,
        "stop_code": "",
        "stop_lat": 47.14615413,
        "stop_name": "Piața Nicolina",
        "location_type": 0
    },
    {
        "stop_lon": 27.5805182,
        "stop_id": 120,
        "stop_code": "",
        "stop_lat": 47.13406736,
        "stop_name": "Bazar",
        "location_type": 0
    },
    {
        "stop_lon": 27.57934079,
        "stop_id": 121,
        "stop_code": "",
        "stop_lat": 47.1490868,
        "stop_name": "Gara Internațională",
        "location_type": 0
    },
    {
        "stop_lon": 27.57414111,
        "stop_id": 122,
        "stop_code": "",
        "stop_lat": 47.15598884,
        "stop_name": "Podul de Piatră",
        "location_type": 0
    },
    {
        "stop_lon": 27.57337,
        "stop_id": 123,
        "stop_code": "",
        "stop_lat": 47.16127,
        "stop_name": "Pasaj ACB",
        "location_type": 0
    },
    {
        "stop_lon": 27.57159892,
        "stop_id": 124,
        "stop_code": "",
        "stop_lat": 47.16547388,
        "stop_name": "Gară",
        "location_type": 0
    },
    {
        "stop_lon": 27.56881191,
        "stop_id": 125,
        "stop_code": "",
        "stop_lat": 47.1674182,
        "stop_name": "Str. Bacinschi",
        "location_type": 0
    },
    {
        "stop_lon": 27.56017023,
        "stop_id": 126,
        "stop_code": "",
        "stop_lat": 47.17156855,
        "stop_name": "Octav Bancilă",
        "location_type": 0
    },
    {
        "stop_lon": 27.55304356,
        "stop_id": 127,
        "stop_code": "",
        "stop_lat": 47.17332884,
        "stop_name": "Moara 1 Mai",
        "location_type": 0
    },
    {
        "stop_lon": 27.54462642,
        "stop_id": 128,
        "stop_code": "",
        "stop_lat": 47.17326621,
        "stop_name": "Sergent Grigore Ioan",
        "location_type": 0
    },
    {
        "stop_lon": 27.53783,
        "stop_id": 129,
        "stop_code": "",
        "stop_lat": 47.17231,
        "stop_name": "Canta",
        "location_type": 0
    },
    {
        "stop_lon": 27.57603068,
        "stop_id": 130,
        "stop_code": "",
        "stop_lat": 47.15661781,
        "stop_name": "Podul de Piatră",
        "location_type": 0
    },
    {
        "stop_lon": 27.58375,
        "stop_id": 131,
        "stop_code": "",
        "stop_lat": 47.154003,
        "stop_name": "Pod Cantemir",
        "location_type": 0
    },
    {
        "stop_lon": 27.58861382,
        "stop_id": 132,
        "stop_code": "",
        "stop_lat": 47.15030367,
        "stop_name": "Podu Roș (2)",
        "location_type": 0
    },
    {
        "stop_lon": 27.59486757,
        "stop_id": 133,
        "stop_code": "",
        "stop_lat": 47.13652899,
        "stop_name": "Liceul C.U.G.",
        "location_type": 0
    },
    {
        "stop_lon": 27.58814491,
        "stop_id": 134,
        "stop_code": "",
        "stop_lat": 47.150466,
        "stop_name": "Podu Roș (2)",
        "location_type": 0
    },
    {
        "stop_lon": 27.58689803,
        "stop_id": 135,
        "stop_code": "",
        "stop_lat": 47.15262542,
        "stop_name": "Bis. Lipovenească",
        "location_type": 0
    },
    {
        "stop_lon": 27.582645,
        "stop_id": 136,
        "stop_code": "",
        "stop_lat": 47.153748,
        "stop_name": "Pod Cantemir",
        "location_type": 0
    },
    {
        "stop_lon": 27.6028,
        "stop_id": 138,
        "stop_code": "",
        "stop_lat": 47.15397,
        "stop_name": "C.T.P. - Secția nr. 1",
        "location_type": 0
    },
    {
        "stop_lon": 27.57205793,
        "stop_id": 141,
        "stop_code": "",
        "stop_lat": 47.13338039,
        "stop_name": "C.U.G. I",
        "location_type": 0
    },
    {
        "stop_lon": 27.575497,
        "stop_id": 142,
        "stop_code": "",
        "stop_lat": 47.13395563,
        "stop_name": "C.U.G. I",
        "location_type": 0
    },
    {
        "stop_lon": 27.60351,
        "stop_id": 145,
        "stop_code": "",
        "stop_lat": 47.15384,
        "stop_name": "C.T.P. - Secția nr. 1",
        "location_type": 0
    },
    {
        "stop_lon": 27.5935289,
        "stop_id": 146,
        "stop_code": "",
        "stop_lat": 47.16136073,
        "stop_name": "Muzeul Municipal \u201eRegina Maria\u201c",
        "location_type": 0
    },
    {
        "stop_lon": 27.58883861,
        "stop_id": 147,
        "stop_code": "",
        "stop_lat": 47.15992259,
        "stop_name": "Palatul Culturii",
        "location_type": 0
    },
    {
        "stop_lon": 27.58717431,
        "stop_id": 148,
        "stop_code": "",
        "stop_lat": 47.15384709,
        "stop_name": "Sala Polivalentă",
        "location_type": 0
    },
    {
        "stop_lon": 27.58595917,
        "stop_id": 149,
        "stop_code": "",
        "stop_lat": 47.14976214,
        "stop_name": "Podu Roș (3)",
        "location_type": 0
    },
    {
        "stop_lon": 27.58029878,
        "stop_id": 150,
        "stop_code": "",
        "stop_lat": 47.14271786,
        "stop_name": "Pod Nicolina",
        "location_type": 0
    },
    {
        "stop_lon": 27.57835022,
        "stop_id": 151,
        "stop_code": "",
        "stop_lat": 47.13921645,
        "stop_name": "Tudor Neculai",
        "location_type": 0
    },
    {
        "stop_lon": 27.56866807,
        "stop_id": 152,
        "stop_code": "",
        "stop_lat": 47.12851136,
        "stop_name": "Biserica Înălțarea Domnului",
        "location_type": 0
    },
    {
        "stop_lon": 27.5672372,
        "stop_id": 153,
        "stop_code": "",
        "stop_lat": 47.12509431,
        "stop_name": "Tehnopolis",
        "location_type": 0
    },
    {
        "stop_lon": 27.51385,
        "stop_id": 154,
        "stop_code": "",
        "stop_lat": 47.16739,
        "stop_name": "MALL MOLDOVA",
        "location_type": 0
    },
    {
        "stop_lon": 27.51283866,
        "stop_id": 155,
        "stop_code": "",
        "stop_lat": 47.17006382,
        "stop_name": "Brico Depot MALL MOLDOVA",
        "location_type": 0
    },
    {
        "stop_lon": 27.52018607,
        "stop_id": 156,
        "stop_code": "",
        "stop_lat": 47.1724089,
        "stop_name": "Popas Păcurari",
        "location_type": 0
    },
    {
        "stop_lon": 27.56137476,
        "stop_id": 157,
        "stop_code": "",
        "stop_lat": 47.17094403,
        "stop_name": "Octav Bancilă",
        "location_type": 0
    },
    {
        "stop_lon": 27.56067008,
        "stop_id": 158,
        "stop_code": "",
        "stop_lat": 47.17148568,
        "stop_name": "Octav Bancilă",
        "location_type": 0
    },
    {
        "stop_lon": 27.52364856,
        "stop_id": 159,
        "stop_code": "",
        "stop_lat": 47.17258089,
        "stop_name": "Ideo",
        "location_type": 0
    },
    {
        "stop_lon": 27.52007878,
        "stop_id": 160,
        "stop_code": "",
        "stop_lat": 47.17248777,
        "stop_name": "Popas Păcurari",
        "location_type": 0
    },
    {
        "stop_lon": 27.51345,
        "stop_id": 161,
        "stop_code": "",
        "stop_lat": 47.16906,
        "stop_name": "MALL MOLDOVA",
        "location_type": 0
    },
    {
        "stop_lon": 27.58132206,
        "stop_id": 162,
        "stop_code": "",
        "stop_lat": 47.14473479,
        "stop_name": "Pasaj Nicolina",
        "location_type": 0
    },
    {
        "stop_lon": 27.57988924,
        "stop_id": 163,
        "stop_code": "",
        "stop_lat": 47.1470459,
        "stop_name": "Gara Internațională",
        "location_type": 0
    },
    {
        "stop_lon": 27.57455355,
        "stop_id": 164,
        "stop_code": "",
        "stop_lat": 47.15002883,
        "stop_name": "Spitalul de Recuperare",
        "location_type": 0
    },
    {
        "stop_lon": 27.57042393,
        "stop_id": 166,
        "stop_code": "",
        "stop_lat": 47.15608732,
        "stop_name": "Mircea cel Bătrân",
        "location_type": 0
    },
    {
        "stop_lon": 27.57072184,
        "stop_id": 167,
        "stop_code": "",
        "stop_lat": 47.16026999,
        "stop_name": "Piața Alexandru cel Bun",
        "location_type": 0
    },
    {
        "stop_lon": 27.56960285,
        "stop_id": 168,
        "stop_code": "",
        "stop_lat": 47.16196497,
        "stop_name": "Piața Alexandru cel Bun II",
        "location_type": 0
    },
    {
        "stop_lon": 27.56461304,
        "stop_id": 169,
        "stop_code": "",
        "stop_lat": 47.16329843,
        "stop_name": "Minerva",
        "location_type": 0
    },
    {
        "stop_lon": 27.55548744,
        "stop_id": 170,
        "stop_code": "",
        "stop_lat": 47.16667032,
        "stop_name": "Zimbru",
        "location_type": 0
    },
    {
        "stop_lon": 27.55001,
        "stop_id": 171,
        "stop_code": "",
        "stop_lat": 47.16679,
        "stop_name": "Bicaz",
        "location_type": 0
    },
    {
        "stop_lon": 27.54444591,
        "stop_id": 172,
        "stop_code": "",
        "stop_lat": 47.16664993,
        "stop_name": "Columnei",
        "location_type": 0
    },
    {
        "stop_lon": 27.5408178,
        "stop_id": 173,
        "stop_code": "",
        "stop_lat": 47.16882472,
        "stop_name": "Dacia",
        "location_type": 0
    },
    {
        "stop_lon": 27.54025,
        "stop_id": 174,
        "stop_code": "",
        "stop_lat": 47.16933,
        "stop_name": "Dacia",
        "location_type": 0
    },
    {
        "stop_lon": 27.55097,
        "stop_id": 175,
        "stop_code": "",
        "stop_lat": 47.16673,
        "stop_name": "Bicaz",
        "location_type": 0
    },
    {
        "stop_lon": 27.55590633,
        "stop_id": 176,
        "stop_code": "",
        "stop_lat": 47.16679119,
        "stop_name": "Zimbru",
        "location_type": 0
    },
    {
        "stop_lon": 27.56429739,
        "stop_id": 177,
        "stop_code": "",
        "stop_lat": 47.16328957,
        "stop_name": "Minerva",
        "location_type": 0
    },
    {
        "stop_lon": 27.56712555,
        "stop_id": 178,
        "stop_code": "",
        "stop_lat": 47.1618644,
        "stop_name": "Familial",
        "location_type": 0
    },
    {
        "stop_lon": 27.5708715,
        "stop_id": 179,
        "stop_code": "",
        "stop_lat": 47.16046949,
        "stop_name": "Piața Alexandru cel Bun",
        "location_type": 0
    },
    {
        "stop_lon": 27.57035267,
        "stop_id": 180,
        "stop_code": "",
        "stop_lat": 47.15623368,
        "stop_name": "Mircea cel Bătrân",
        "location_type": 0
    },
    {
        "stop_lon": 27.57485637,
        "stop_id": 182,
        "stop_code": "",
        "stop_lat": 47.14973511,
        "stop_name": "Spitalul de Recuperare",
        "location_type": 0
    },
    {
        "stop_lon": 27.58224291,
        "stop_id": 184,
        "stop_code": "",
        "stop_lat": 47.1448222,
        "stop_name": "Pasaj Nicolina",
        "location_type": 0
    },
    {
        "stop_lon": 27.58593634,
        "stop_id": 185,
        "stop_code": "",
        "stop_lat": 47.14952278,
        "stop_name": "Podu Roș (3)",
        "location_type": 0
    },
    {
        "stop_lon": 27.58942,
        "stop_id": 186,
        "stop_code": "",
        "stop_lat": 47.15096,
        "stop_name": "Podu Roș (1)",
        "location_type": 0
    },
    {
        "stop_lon": 27.60216,
        "stop_id": 188,
        "stop_code": "",
        "stop_lat": 47.14796,
        "stop_name": "Silk District",
        "location_type": 0
    },
    {
        "stop_lon": 27.60856384,
        "stop_id": 189,
        "stop_code": "",
        "stop_lat": 47.14715461,
        "stop_name": "Baza 3",
        "location_type": 0
    },
    {
        "stop_lon": 27.61537,
        "stop_id": 190,
        "stop_code": "",
        "stop_lat": 47.14604,
        "stop_name": "C.F.S.",
        "location_type": 0
    },
    {
        "stop_lon": 27.61883766,
        "stop_id": 191,
        "stop_code": "",
        "stop_lat": 47.14560146,
        "stop_name": "Piața Ing. Virgil Săhleanu",
        "location_type": 0
    },
    {
        "stop_lon": 27.62023163,
        "stop_id": 192,
        "stop_code": "",
        "stop_lat": 47.14794008,
        "stop_name": "C.F.S. II",
        "location_type": 0
    },
    {
        "stop_lon": 27.62090155,
        "stop_id": 193,
        "stop_code": "",
        "stop_lat": 47.1500854,
        "stop_name": "Pod Metalurgie",
        "location_type": 0
    },
    {
        "stop_lon": 27.62208143,
        "stop_id": 194,
        "stop_code": "",
        "stop_lat": 47.1529303,
        "stop_name": "Blocuri Metalurgie",
        "location_type": 0
    },
    {
        "stop_lon": 27.5951359,
        "stop_id": 195,
        "stop_code": "",
        "stop_lat": 47.1670264,
        "stop_name": "Podu de Fier",
        "location_type": 0
    },
    {
        "stop_lon": 27.56738621,
        "stop_id": 196,
        "stop_code": "",
        "stop_lat": 47.12394434,
        "stop_name": "Tehnopolis",
        "location_type": 0
    },
    {
        "stop_lon": 27.56930244,
        "stop_id": 197,
        "stop_code": "",
        "stop_lat": 47.12940211,
        "stop_name": "Biserica Înălțarea Domnului",
        "location_type": 0
    },
    {
        "stop_lon": 27.57742581,
        "stop_id": 198,
        "stop_code": "",
        "stop_lat": 47.13822818,
        "stop_name": "Tudor Neculai",
        "location_type": 0
    },
    {
        "stop_lon": 27.58065653,
        "stop_id": 199,
        "stop_code": "",
        "stop_lat": 47.14307359,
        "stop_name": "Pod Nicolina",
        "location_type": 0
    },
    {
        "stop_lon": 27.57661047,
        "stop_id": 200,
        "stop_code": "",
        "stop_lat": 47.16895337,
        "stop_name": "Piața Mihai Eminescu",
        "location_type": 0
    },
    {
        "stop_lon": 27.60252726,
        "stop_id": 201,
        "stop_code": "",
        "stop_lat": 47.14919438,
        "stop_name": "Silk District",
        "location_type": 0
    },
    {
        "stop_lon": 27.60077158,
        "stop_id": 202,
        "stop_code": "",
        "stop_lat": 47.14822203,
        "stop_name": "Silk District",
        "location_type": 0
    },
    {
        "stop_lon": 27.60272244,
        "stop_id": 204,
        "stop_code": "",
        "stop_lat": 47.14959377,
        "stop_name": "Silk District",
        "location_type": 0
    },
    {
        "stop_lon": 27.57018,
        "stop_id": 207,
        "stop_code": "",
        "stop_lat": 47.16659,
        "stop_name": "Gară",
        "location_type": 0
    },
    {
        "stop_lon": 27.59473622,
        "stop_id": 210,
        "stop_code": "",
        "stop_lat": 47.14908286,
        "stop_name": "Țesătura",
        "location_type": 0
    },
    {
        "stop_lon": 27.60901943,
        "stop_id": 212,
        "stop_code": "",
        "stop_lat": 47.16136752,
        "stop_name": "Tătărași Nord",
        "location_type": 0
    },
    {
        "stop_lon": 27.54414859,
        "stop_id": 213,
        "stop_code": "",
        "stop_lat": 47.16680333,
        "stop_name": "Columnei",
        "location_type": 0
    },
    {
        "stop_lon": 27.56839173,
        "stop_id": 214,
        "stop_code": "",
        "stop_lat": 47.16810656,
        "stop_name": "Str. Bacinschi",
        "location_type": 0
    },
    {
        "stop_lon": 27.56304473,
        "stop_id": 215,
        "stop_code": "",
        "stop_lat": 47.11728001,
        "stop_name": "Oțelarie",
        "location_type": 0
    },
    {
        "stop_lon": 27.56103921,
        "stop_id": 216,
        "stop_code": "",
        "stop_lat": 47.11421352,
        "stop_name": "Baza Nautică",
        "location_type": 0
    },
    {
        "stop_lon": 27.55961061,
        "stop_id": 217,
        "stop_code": "",
        "stop_lat": 47.11073906,
        "stop_name": "Horpaz",
        "location_type": 0
    },
    {
        "stop_lon": 27.55964529,
        "stop_id": 218,
        "stop_code": "",
        "stop_lat": 47.10561558,
        "stop_name": "Sere Ciurea",
        "location_type": 0
    },
    {
        "stop_lon": 27.55977365,
        "stop_id": 219,
        "stop_code": "",
        "stop_lat": 47.10066568,
        "stop_name": "Lunca Cetățuii",
        "location_type": 0
    },
    {
        "stop_lon": 27.55900642,
        "stop_id": 220,
        "stop_code": "",
        "stop_lat": 47.09705029,
        "stop_name": "Astoria",
        "location_type": 0
    },
    {
        "stop_lon": 27.56659,
        "stop_id": 221,
        "stop_code": "",
        "stop_lat": 47.09664,
        "stop_name": "Blocuri Ciurea",
        "location_type": 0
    },
    {
        "stop_lon": 27.56119183,
        "stop_id": 222,
        "stop_code": "",
        "stop_lat": 47.09670078,
        "stop_name": "Blocuri Ciurea",
        "location_type": 0
    },
    {
        "stop_lon": 27.55900317,
        "stop_id": 223,
        "stop_code": "",
        "stop_lat": 47.09718809,
        "stop_name": "Astoria",
        "location_type": 0
    },
    {
        "stop_lon": 27.55977809,
        "stop_id": 224,
        "stop_code": "",
        "stop_lat": 47.10033048,
        "stop_name": "Lunca Cetățuii",
        "location_type": 0
    },
    {
        "stop_lon": 27.55970347,
        "stop_id": 225,
        "stop_code": "",
        "stop_lat": 47.10486399,
        "stop_name": "Sere Ciurea",
        "location_type": 0
    },
    {
        "stop_lon": 27.55936384,
        "stop_id": 226,
        "stop_code": "",
        "stop_lat": 47.11046291,
        "stop_name": "Horpaz",
        "location_type": 0
    },
    {
        "stop_lon": 27.56101203,
        "stop_id": 227,
        "stop_code": "",
        "stop_lat": 47.11399439,
        "stop_name": "Baza Nautică",
        "location_type": 0
    },
    {
        "stop_lon": 27.56268674,
        "stop_id": 228,
        "stop_code": "",
        "stop_lat": 47.1167579,
        "stop_name": "Oțelărie",
        "location_type": 0
    },
    {
        "stop_lon": 27.56709644,
        "stop_id": 229,
        "stop_code": "",
        "stop_lat": 47.12347297,
        "stop_name": "Tehnopolis",
        "location_type": 0
    },
    {
        "stop_lon": 27.61748512,
        "stop_id": 230,
        "stop_code": "",
        "stop_lat": 47.17652997,
        "stop_name": "Aeroport",
        "location_type": 0
    },
    {
        "stop_lon": 27.61739462,
        "stop_id": 231,
        "stop_code": "",
        "stop_lat": 47.17635964,
        "stop_name": "Aeroport",
        "location_type": 0
    },
    {
        "stop_lon": 27.64348871,
        "stop_id": 232,
        "stop_code": "",
        "stop_lat": 47.14334593,
        "stop_name": "Țuțora",
        "location_type": 0
    },
    {
        "stop_lon": 27.63578121,
        "stop_id": 233,
        "stop_code": "",
        "stop_lat": 47.14327515,
        "stop_name": "Tehnoton",
        "location_type": 0
    },
    {
        "stop_lon": 27.62969582,
        "stop_id": 234,
        "stop_code": "",
        "stop_lat": 47.14406312,
        "stop_name": "Fabrica de Ulei",
        "location_type": 0
    },
    {
        "stop_lon": 27.63027325,
        "stop_id": 237,
        "stop_code": "",
        "stop_lat": 47.14417759,
        "stop_name": "Fabrica de Ulei",
        "location_type": 0
    },
    {
        "stop_lon": 27.63622607,
        "stop_id": 238,
        "stop_code": "",
        "stop_lat": 47.1434331,
        "stop_name": "Tehnoton",
        "location_type": 0
    },
    {
        "stop_lon": 27.64447815,
        "stop_id": 239,
        "stop_code": "",
        "stop_lat": 47.14350848,
        "stop_name": "Țuțora",
        "location_type": 0
    },
    {
        "stop_lon": 27.55754945,
        "stop_id": 240,
        "stop_code": "",
        "stop_lat": 47.16701859,
        "stop_name": "Zimbru",
        "location_type": 0
    },
    {
        "stop_lon": 27.57535008,
        "stop_id": 241,
        "stop_code": "",
        "stop_lat": 47.13362475,
        "stop_name": "C.U.G. I",
        "location_type": 0
    },
    {
        "stop_lon": 27.57241091,
        "stop_id": 242,
        "stop_code": "",
        "stop_lat": 47.13388061,
        "stop_name": "C.U.G. I",
        "location_type": 0
    },
    {
        "stop_lon": 27.53157064,
        "stop_id": 243,
        "stop_code": "",
        "stop_lat": 47.2095358,
        "stop_name": "Breazu",
        "location_type": 0
    },
    {
        "stop_lon": 27.534626,
        "stop_id": 244,
        "stop_code": "",
        "stop_lat": 47.20277829,
        "stop_name": "Stațiunea Viticolă",
        "location_type": 0
    },
    {
        "stop_lon": 27.53771906,
        "stop_id": 245,
        "stop_code": "",
        "stop_lat": 47.20091668,
        "stop_name": "Seminarul Teologic",
        "location_type": 0
    },
    {
        "stop_lon": 27.53819302,
        "stop_id": 252,
        "stop_code": "",
        "stop_lat": 47.20077253,
        "stop_name": "Seminarul Teologic",
        "location_type": 0
    },
    {
        "stop_lon": 27.53503203,
        "stop_id": 253,
        "stop_code": "",
        "stop_lat": 47.20262038,
        "stop_name": "Stațiunea Viticolă",
        "location_type": 0
    },
    {
        "stop_lon": 27.5315693,
        "stop_id": 254,
        "stop_code": "",
        "stop_lat": 47.20958955,
        "stop_name": "Breazu",
        "location_type": 0
    },
    {
        "stop_lon": 27.60635197,
        "stop_id": 255,
        "stop_code": "",
        "stop_lat": 47.14484941,
        "stop_name": "Moldomobila",
        "location_type": 0
    },
    {
        "stop_lon": 27.60253275,
        "stop_id": 256,
        "stop_code": "",
        "stop_lat": 47.1430695,
        "stop_name": "Liceul de Construcții",
        "location_type": 0
    },
    {
        "stop_lon": 27.56445998,
        "stop_id": 263,
        "stop_code": "",
        "stop_lat": 47.11949679,
        "stop_name": "Vama II",
        "location_type": 0
    },
    {
        "stop_lon": 27.56428173,
        "stop_id": 264,
        "stop_code": "",
        "stop_lat": 47.11925488,
        "stop_name": "Vama II",
        "location_type": 0
    },
    {
        "stop_lon": 27.60857,
        "stop_id": 267,
        "stop_code": "",
        "stop_lat": 47.16146,
        "stop_name": "Tătărași Nord",
        "location_type": 0
    },
    {
        "stop_lon": 27.60137061,
        "stop_id": 268,
        "stop_code": "",
        "stop_lat": 47.14802365,
        "stop_name": "Silk District",
        "location_type": 0
    },
    {
        "stop_lon": 27.6500505,
        "stop_id": 269,
        "stop_code": "",
        "stop_lat": 47.14346916,
        "stop_name": "Somaco",
        "location_type": 0
    },
    {
        "stop_lon": 27.65831378,
        "stop_id": 270,
        "stop_code": "",
        "stop_lat": 47.14185697,
        "stop_name": "Boromir",
        "location_type": 0
    },
    {
        "stop_lon": 27.66699587,
        "stop_id": 271,
        "stop_code": "",
        "stop_lat": 47.13848954,
        "stop_name": "Caretta",
        "location_type": 0
    },
    {
        "stop_lon": 27.67333853,
        "stop_id": 272,
        "stop_code": "",
        "stop_lat": 47.13596595,
        "stop_name": "Vinia",
        "location_type": 0
    },
    {
        "stop_lon": 27.68308244,
        "stop_id": 273,
        "stop_code": "",
        "stop_lat": 47.13449183,
        "stop_name": "Facultativa",
        "location_type": 0
    },
    {
        "stop_lon": 27.69102403,
        "stop_id": 274,
        "stop_code": "",
        "stop_lat": 47.13254732,
        "stop_name": "Blocuri Tomești",
        "location_type": 0
    },
    {
        "stop_lon": 27.69811796,
        "stop_id": 275,
        "stop_code": "",
        "stop_lat": 47.13076329,
        "stop_name": "Tomești",
        "location_type": 0
    },
    {
        "stop_lon": 27.69826012,
        "stop_id": 276,
        "stop_code": "",
        "stop_lat": 47.13061103,
        "stop_name": "Tomești",
        "location_type": 0
    },
    {
        "stop_lon": 27.69299689,
        "stop_id": 277,
        "stop_code": "",
        "stop_lat": 47.13204262,
        "stop_name": "Blocuri Tomești",
        "location_type": 0
    },
    {
        "stop_lon": 27.6833716,
        "stop_id": 278,
        "stop_code": "",
        "stop_lat": 47.13439573,
        "stop_name": "Facultativa",
        "location_type": 0
    },
    {
        "stop_lon": 27.67462027,
        "stop_id": 279,
        "stop_code": "",
        "stop_lat": 47.13563373,
        "stop_name": "Vinia",
        "location_type": 0
    },
    {
        "stop_lon": 27.66787053,
        "stop_id": 280,
        "stop_code": "",
        "stop_lat": 47.13821701,
        "stop_name": "Caretta",
        "location_type": 0
    },
    {
        "stop_lon": 27.65857559,
        "stop_id": 281,
        "stop_code": "",
        "stop_lat": 47.14180977,
        "stop_name": "Boromir",
        "location_type": 0
    },
    {
        "stop_lon": 27.65125519,
        "stop_id": 282,
        "stop_code": "",
        "stop_lat": 47.14350572,
        "stop_name": "Somaco",
        "location_type": 0
    },
    {
        "stop_lon": 27.56568241,
        "stop_id": 283,
        "stop_code": "",
        "stop_lat": 47.16455063,
        "stop_name": "Twinkle Star",
        "location_type": 0
    },
    {
        "stop_lon": 27.57244495,
        "stop_id": 284,
        "stop_code": "",
        "stop_lat": 47.15185347,
        "stop_name": "Policlinica Recuperare",
        "location_type": 0
    },
    {
        "stop_lon": 27.57255611,
        "stop_id": 285,
        "stop_code": "",
        "stop_lat": 47.15183231,
        "stop_name": "Policlinica Recuperare",
        "location_type": 0
    },
    {
        "stop_lon": 27.58520344,
        "stop_id": 286,
        "stop_code": "",
        "stop_lat": 47.13951014,
        "stop_name": "Frumoasa",
        "location_type": 0
    },
    {
        "stop_lon": 27.58525506,
        "stop_id": 287,
        "stop_code": "",
        "stop_lat": 47.13952284,
        "stop_name": "Frumoasa",
        "location_type": 0
    },
    {
        "stop_lon": 27.58158378,
        "stop_id": 288,
        "stop_code": "",
        "stop_lat": 47.13640522,
        "stop_name": "Clopotari",
        "location_type": 0
    },
    {
        "stop_lon": 27.5814405,
        "stop_id": 289,
        "stop_code": "",
        "stop_lat": 47.13635495,
        "stop_name": "Clopotari",
        "location_type": 0
    },
    {
        "stop_lon": 27.57737842,
        "stop_id": 290,
        "stop_code": "",
        "stop_lat": 47.13477417,
        "stop_name": "Piața C.U.G.",
        "location_type": 0
    },
    {
        "stop_lon": 27.57868683,
        "stop_id": 291,
        "stop_code": "",
        "stop_lat": 47.14780194,
        "stop_name": "Gara Internațională",
        "location_type": 0
    },
    {
        "stop_lon": 27.54981038,
        "stop_id": 292,
        "stop_code": "",
        "stop_lat": 47.16945389,
        "stop_name": "Piața Dacia",
        "location_type": 0
    },
    {
        "stop_lon": 27.55012051,
        "stop_id": 294,
        "stop_code": "",
        "stop_lat": 47.16897576,
        "stop_name": "Piața Dacia",
        "location_type": 0
    },
    {
        "stop_lon": 27.565801,
        "stop_id": 296,
        "stop_code": "",
        "stop_lat": 47.16448046,
        "stop_name": "Twinkle Star",
        "location_type": 0
    },
    {
        "stop_lon": 27.60947,
        "stop_id": 297,
        "stop_code": "",
        "stop_lat": 47.16012,
        "stop_name": "Spitalul Sf. Maria",
        "location_type": 0
    },
    {
        "stop_lon": 27.61062,
        "stop_id": 298,
        "stop_code": "",
        "stop_lat": 47.16015,
        "stop_name": "Spitalul Sf. Maria",
        "location_type": 0
    },
    {
        "stop_lon": 27.58639552,
        "stop_id": 300,
        "stop_code": "",
        "stop_lat": 47.15011784,
        "stop_name": "Podu Roș (3)",
        "location_type": 0
    },
    {
        "stop_lon": 27.54422338,
        "stop_id": 301,
        "stop_code": "",
        "stop_lat": 47.17470124,
        "stop_name": "Cimitirul Evreiesc",
        "location_type": 0
    },
    {
        "stop_lon": 27.54413761,
        "stop_id": 302,
        "stop_code": "",
        "stop_lat": 47.17479809,
        "stop_name": "Cimitirul Evreiesc",
        "location_type": 0
    },
    {
        "stop_lon": 27.60595406,
        "stop_id": 303,
        "stop_code": "",
        "stop_lat": 47.1624656,
        "stop_name": "Ateneu",
        "location_type": 0
    },
    {
        "stop_lon": 27.60625206,
        "stop_id": 306,
        "stop_code": "",
        "stop_lat": 47.13839593,
        "stop_name": "Gara Socola",
        "location_type": 0
    },
    {
        "stop_lon": 27.60977175,
        "stop_id": 307,
        "stop_code": "",
        "stop_lat": 47.14690568,
        "stop_name": "Baza 3",
        "location_type": 0
    },
    {
        "stop_lon": 27.61053077,
        "stop_id": 308,
        "stop_code": "",
        "stop_lat": 47.14701416,
        "stop_name": "Baza 3",
        "location_type": 0
    },
    {
        "stop_lon": 27.60881921,
        "stop_id": 309,
        "stop_code": "",
        "stop_lat": 47.14597152,
        "stop_name": "Baza 3",
        "location_type": 0
    },
    {
        "stop_lon": 27.6099696,
        "stop_id": 310,
        "stop_code": "",
        "stop_lat": 47.14661535,
        "stop_name": "Baza 3",
        "location_type": 0
    },
    {
        "stop_lon": 27.61897,
        "stop_id": 311,
        "stop_code": "",
        "stop_lat": 47.14562,
        "stop_name": "Piața Ing. Virgil Săhleanu",
        "location_type": 0
    },
    {
        "stop_lon": 27.61971,
        "stop_id": 312,
        "stop_code": "",
        "stop_lat": 47.14628,
        "stop_name": "Piața Ing. Virgil Săhleanu",
        "location_type": 0
    },
    {
        "stop_lon": 27.64338,
        "stop_id": 313,
        "stop_code": "",
        "stop_lat": 47.14342,
        "stop_name": "Rond Țuțora",
        "location_type": 0
    },
    {
        "stop_lon": 27.60010403,
        "stop_id": 314,
        "stop_code": "",
        "stop_lat": 47.14179755,
        "stop_name": "Frigorifer",
        "location_type": 0
    },
    {
        "stop_lon": 27.59515489,
        "stop_id": 315,
        "stop_code": "",
        "stop_lat": 47.14965297,
        "stop_name": "Țesătura",
        "location_type": 0
    },
    {
        "stop_lon": 27.59657,
        "stop_id": 316,
        "stop_code": "",
        "stop_lat": 47.15086,
        "stop_name": "Țesătura",
        "location_type": 0
    },
    {
        "stop_lon": 27.59507185,
        "stop_id": 317,
        "stop_code": "",
        "stop_lat": 47.14911991,
        "stop_name": "Țesătura",
        "location_type": 0
    },
    {
        "stop_lon": 27.59536631,
        "stop_id": 318,
        "stop_code": "",
        "stop_lat": 47.14907777,
        "stop_name": "Țesătura",
        "location_type": 0
    },
    {
        "stop_lon": 27.60152191,
        "stop_id": 319,
        "stop_code": "",
        "stop_lat": 47.14820919,
        "stop_name": "Silk District",
        "location_type": 0
    },
    {
        "stop_lon": 27.59860017,
        "stop_id": 322,
        "stop_code": "",
        "stop_lat": 47.15211436,
        "stop_name": "Școala Ion Ghica",
        "location_type": 0
    },
    {
        "stop_lon": 27.56678,
        "stop_id": 323,
        "stop_code": "",
        "stop_lat": 47.16218,
        "stop_name": "Familial",
        "location_type": 0
    },
    {
        "stop_lon": 27.53684185,
        "stop_id": 324,
        "stop_code": "",
        "stop_lat": 47.17253248,
        "stop_name": "Canta",
        "location_type": 0
    },
    {
        "stop_lon": 27.53685651,
        "stop_id": 325,
        "stop_code": "",
        "stop_lat": 47.17244616,
        "stop_name": "Canta",
        "location_type": 0
    },
    {
        "stop_lon": 27.582039,
        "stop_id": 326,
        "stop_code": "",
        "stop_lat": 47.14709112,
        "stop_name": "Vamă",
        "location_type": 0
    },
    {
        "stop_lon": 27.58199,
        "stop_id": 327,
        "stop_code": "",
        "stop_lat": 47.14736,
        "stop_name": "Vamă",
        "location_type": 0
    },
    {
        "stop_lon": 27.58838401,
        "stop_id": 328,
        "stop_code": "",
        "stop_lat": 47.15045422,
        "stop_name": "Podu Roș (2)",
        "location_type": 0
    },
    {
        "stop_lon": 27.59017371,
        "stop_id": 331,
        "stop_code": "",
        "stop_lat": 47.16415371,
        "stop_name": "Tg. Cucu",
        "location_type": 0
    },
    {
        "stop_lon": 27.58787297,
        "stop_id": 332,
        "stop_code": "",
        "stop_lat": 47.15932388,
        "stop_name": "Palatul Culturii",
        "location_type": 0
    },
    {
        "stop_lon": 27.55920142,
        "stop_id": 333,
        "stop_code": "",
        "stop_lat": 47.19043297,
        "stop_name": "Copou",
        "location_type": 0
    },
    {
        "stop_lon": 27.61327235,
        "stop_id": 334,
        "stop_code": "",
        "stop_lat": 47.15999959,
        "stop_name": "Dr. Savini",
        "location_type": 0
    },
    {
        "stop_lon": 27.61459976,
        "stop_id": 335,
        "stop_code": "",
        "stop_lat": 47.15995552,
        "stop_name": "Dr. Savini",
        "location_type": 0
    },
    {
        "stop_lon": 27.61891001,
        "stop_id": 336,
        "stop_code": "",
        "stop_lat": 47.15915609,
        "stop_name": "Flora",
        "location_type": 0
    },
    {
        "stop_lon": 27.62050867,
        "stop_id": 337,
        "stop_code": "",
        "stop_lat": 47.1589018,
        "stop_name": "Flora",
        "location_type": 0
    },
    {
        "stop_lon": 27.60674492,
        "stop_id": 338,
        "stop_code": "",
        "stop_lat": 47.13828304,
        "stop_name": "Gara Socola",
        "location_type": 0
    },
    {
        "stop_lon": 27.5448744,
        "stop_id": 339,
        "stop_code": "",
        "stop_lat": 47.19862824,
        "stop_name": "Liceul Agricol",
        "location_type": 0
    },
    {
        "stop_lon": 27.54463032,
        "stop_id": 340,
        "stop_code": "",
        "stop_lat": 47.19838339,
        "stop_name": "Liceul Agricol",
        "location_type": 0
    },
    {
        "stop_lon": 27.54175231,
        "stop_id": 341,
        "stop_code": "",
        "stop_lat": 47.19969782,
        "stop_name": "Liceul Pedagogic",
        "location_type": 0
    },
    {
        "stop_lon": 27.54156349,
        "stop_id": 342,
        "stop_code": "",
        "stop_lat": 47.19972757,
        "stop_name": "Liceul Pedagogic",
        "location_type": 0
    },
    {
        "stop_lon": 27.55414613,
        "stop_id": 343,
        "stop_code": "",
        "stop_lat": 47.1959979,
        "stop_name": "Muzeul Mihail Sadoveanu",
        "location_type": 0
    },
    {
        "stop_lon": 27.55468612,
        "stop_id": 344,
        "stop_code": "",
        "stop_lat": 47.19539916,
        "stop_name": "Muzeul Mihail Sadoveanu",
        "location_type": 0
    },
    {
        "stop_lon": 27.58341973,
        "stop_id": 345,
        "stop_code": "",
        "stop_lat": 47.14453171,
        "stop_name": "Pasaj Nicolina",
        "location_type": 0
    },
    {
        "stop_lon": 27.5835143,
        "stop_id": 346,
        "stop_code": "",
        "stop_lat": 47.14465269,
        "stop_name": "Pasaj Nicolina",
        "location_type": 0
    },
    {
        "stop_lon": 27.5701302,
        "stop_id": 347,
        "stop_code": "",
        "stop_lat": 47.16020431,
        "stop_name": "Piața Alexandru cel Bun",
        "location_type": 0
    },
    {
        "stop_lon": 27.57734723,
        "stop_id": 348,
        "stop_code": "",
        "stop_lat": 47.1348815,
        "stop_name": "Piața C.U.G.",
        "location_type": 0
    },
    {
        "stop_lon": 27.5583883,
        "stop_id": 349,
        "stop_code": "",
        "stop_lat": 47.16815216,
        "stop_name": "Piața Sf. Anton de Padova",
        "location_type": 0
    },
    {
        "stop_lon": 27.55827,
        "stop_id": 350,
        "stop_code": "",
        "stop_lat": 47.16829,
        "stop_name": "Piața Sf. Anton de Padova",
        "location_type": 0
    },
    {
        "stop_lon": 27.55769,
        "stop_id": 351,
        "stop_code": "",
        "stop_lat": 47.16808,
        "stop_name": "Piața Sf. Anton de Padova",
        "location_type": 0
    },
    {
        "stop_lon": 27.55084366,
        "stop_id": 352,
        "stop_code": "",
        "stop_lat": 47.19733955,
        "stop_name": "Str. Podgoriilor",
        "location_type": 0
    },
    {
        "stop_lon": 27.55027436,
        "stop_id": 353,
        "stop_code": "",
        "stop_lat": 47.19740528,
        "stop_name": "Str. Podgoriilor",
        "location_type": 0
    },
    {
        "stop_lon": 27.62394,
        "stop_id": 354,
        "stop_code": "",
        "stop_lat": 47.15626,
        "stop_name": "Tătărași Sud",
        "location_type": 0
    },
    {
        "stop_lon": 27.48900063,
        "stop_id": 355,
        "stop_code": "",
        "stop_lat": 47.17734056,
        "stop_name": "Antibiotice",
        "location_type": 0
    },
    {
        "stop_lon": 27.48805851,
        "stop_id": 356,
        "stop_code": "",
        "stop_lat": 47.1774048,
        "stop_name": "Antibiotice",
        "location_type": 0
    },
    {
        "stop_lon": 27.50669785,
        "stop_id": 357,
        "stop_code": "",
        "stop_lat": 47.17386523,
        "stop_name": "Str. 1 Decembrie V.Lupului",
        "location_type": 0
    },
    {
        "stop_lon": 27.50610441,
        "stop_id": 358,
        "stop_code": "",
        "stop_lat": 47.17387941,
        "stop_name": "Str. 1 Decembrie V.Lupului",
        "location_type": 0
    },
    {
        "stop_lon": 27.47427195,
        "stop_id": 359,
        "stop_code": "",
        "stop_lat": 47.18067264,
        "stop_name": "Dedeman",
        "location_type": 0
    },
    {
        "stop_lon": 27.59501025,
        "stop_id": 360,
        "stop_code": "",
        "stop_lat": 47.16616838,
        "stop_name": "Podu de Fier",
        "location_type": 0
    },
    {
        "stop_lon": 27.4988383,
        "stop_id": 361,
        "stop_code": "",
        "stop_lat": 47.17519509,
        "stop_name": "Troița V.Lupului",
        "location_type": 0
    },
    {
        "stop_lon": 27.49912329,
        "stop_id": 362,
        "stop_code": "",
        "stop_lat": 47.17503007,
        "stop_name": "Troița V.Lupului",
        "location_type": 0
    },
    {
        "stop_lon": 27.59615153,
        "stop_id": 363,
        "stop_code": "",
        "stop_lat": 47.16453204,
        "stop_name": "Str. Conductelor",
        "location_type": 0
    },
    {
        "stop_lon": 27.59616466,
        "stop_id": 364,
        "stop_code": "",
        "stop_lat": 47.16434179,
        "stop_name": "Str. Conductelor",
        "location_type": 0
    },
    {
        "stop_lon": 27.59971,
        "stop_id": 365,
        "stop_code": "",
        "stop_lat": 47.16014,
        "stop_name": "Bucșinescu",
        "location_type": 0
    },
    {
        "stop_lon": 27.51286089,
        "stop_id": 366,
        "stop_code": "",
        "stop_lat": 47.17005595,
        "stop_name": "Brico Depot MALL MOLDOVA",
        "location_type": 0
    },
    {
        "stop_lon": 27.51297,
        "stop_id": 369,
        "stop_code": "",
        "stop_lat": 47.16909,
        "stop_name": "MALL MOLDOVA",
        "location_type": 0
    },
    {
        "stop_lon": 27.64319479,
        "stop_id": 370,
        "stop_code": "",
        "stop_lat": 47.14335173,
        "stop_name": "Țuțora",
        "location_type": 0
    },
    {
        "stop_lon": 27.64333159,
        "stop_id": 371,
        "stop_code": "",
        "stop_lat": 47.14335431,
        "stop_name": "Țuțora",
        "location_type": 0
    },
    {
        "stop_lon": 27.5703,
        "stop_id": 372,
        "stop_code": "",
        "stop_lat": 47.15999,
        "stop_name": "Piața Alexandru cel Bun",
        "location_type": 0
    },
    {
        "stop_lon": 27.54061,
        "stop_id": 373,
        "stop_code": "",
        "stop_lat": 47.16952,
        "stop_name": "Dacia",
        "location_type": 0
    },
    {
        "stop_lon": 27.65951,
        "stop_id": 374,
        "stop_code": "",
        "stop_lat": 47.15194,
        "stop_name": "Dancu",
        "location_type": 0
    },
    {
        "stop_lon": 27.46890753,
        "stop_id": 375,
        "stop_code": "",
        "stop_lat": 47.18126696,
        "stop_name": "METRO",
        "location_type": 0
    },
    {
        "stop_lon": 27.46899337,
        "stop_id": 376,
        "stop_code": "",
        "stop_lat": 47.18118492,
        "stop_name": "METRO",
        "location_type": 0
    },
    {
        "stop_lon": 27.6083,
        "stop_id": 377,
        "stop_code": "",
        "stop_lat": 47.16159,
        "stop_name": "Tătărași Nord",
        "location_type": 0
    },
    {
        "stop_lon": 27.54174,
        "stop_id": 378,
        "stop_code": "",
        "stop_lat": 47.16796,
        "stop_name": "Dacia",
        "location_type": 0
    },
    {
        "stop_lon": 27.59897254,
        "stop_id": 379,
        "stop_code": "",
        "stop_lat": 47.17306523,
        "stop_name": "Cimitirul Sf. Petru și Pavel",
        "location_type": 0
    },
    {
        "stop_lon": 27.59894639,
        "stop_id": 380,
        "stop_code": "",
        "stop_lat": 47.17305363,
        "stop_name": "Cimitirul Sf. Petru și Pavel",
        "location_type": 0
    },
    {
        "stop_lon": 27.59806998,
        "stop_id": 381,
        "stop_code": "",
        "stop_lat": 47.17849415,
        "stop_name": "Telegondola 1",
        "location_type": 0
    },
    {
        "stop_lon": 27.59798214,
        "stop_id": 382,
        "stop_code": "",
        "stop_lat": 47.17892086,
        "stop_name": "Telegondola 1",
        "location_type": 0
    },
    {
        "stop_lon": 27.60285035,
        "stop_id": 383,
        "stop_code": "",
        "stop_lat": 47.18108487,
        "stop_name": "Telegondola 2",
        "location_type": 0
    },
    {
        "stop_lon": 27.60324597,
        "stop_id": 384,
        "stop_code": "",
        "stop_lat": 47.18062443,
        "stop_name": "Telegondola 2",
        "location_type": 0
    },
    {
        "stop_lon": 27.60734,
        "stop_id": 385,
        "stop_code": "",
        "stop_lat": 47.17679,
        "stop_name": "Ciric",
        "location_type": 0
    },
    {
        "stop_lon": 27.60716432,
        "stop_id": 386,
        "stop_code": "",
        "stop_lat": 47.17695346,
        "stop_name": "Ciric",
        "location_type": 0
    },
    {
        "stop_lon": 27.6073,
        "stop_id": 387,
        "stop_code": "",
        "stop_lat": 47.17681,
        "stop_name": "Ciric",
        "location_type": 0
    },
    {
        "stop_lon": 27.60001,
        "stop_id": 388,
        "stop_code": "",
        "stop_lat": 47.16752,
        "stop_name": "Spital Pascanu",
        "location_type": 0
    },
    {
        "stop_lon": 27.59466693,
        "stop_id": 389,
        "stop_code": "",
        "stop_lat": 47.166924,
        "stop_name": "Podu de Fier",
        "location_type": 0
    },
    {
        "stop_lon": 27.6234524,
        "stop_id": 390,
        "stop_code": "",
        "stop_lat": 47.15646628,
        "stop_name": "Tătărași Sud",
        "location_type": 0
    },
    {
        "stop_lon": 27.59050548,
        "stop_id": 391,
        "stop_code": "",
        "stop_lat": 47.163935,
        "stop_name": "Tg. Cucu",
        "location_type": 0
    },
    {
        "stop_lon": 27.54415892,
        "stop_id": 392,
        "stop_code": "",
        "stop_lat": 47.16667772,
        "stop_name": "Columnei",
        "location_type": 0
    },
    {
        "stop_lon": 27.54527,
        "stop_id": 393,
        "stop_code": "",
        "stop_lat": 47.16672,
        "stop_name": "Columnei",
        "location_type": 0
    },
    {
        "stop_lon": 27.55016366,
        "stop_id": 394,
        "stop_code": "",
        "stop_lat": 47.16669152,
        "stop_name": "Bicaz",
        "location_type": 0
    },
    {
        "stop_lon": 27.55135521,
        "stop_id": 395,
        "stop_code": "",
        "stop_lat": 47.16676254,
        "stop_name": "Bicaz",
        "location_type": 0
    },
    {
        "stop_lon": 27.55635703,
        "stop_id": 396,
        "stop_code": "",
        "stop_lat": 47.16672252,
        "stop_name": "Zimbru",
        "location_type": 0
    },
    {
        "stop_lon": 27.55833259,
        "stop_id": 397,
        "stop_code": "",
        "stop_lat": 47.16624884,
        "stop_name": "Zimbru",
        "location_type": 0
    },
    {
        "stop_lon": 27.56455913,
        "stop_id": 398,
        "stop_code": "",
        "stop_lat": 47.16321932,
        "stop_name": "Minerva",
        "location_type": 0
    },
    {
        "stop_lon": 27.55245298,
        "stop_id": 399,
        "stop_code": "",
        "stop_lat": 47.17339207,
        "stop_name": "Moara 1 Mai",
        "location_type": 0
    },
    {
        "stop_lon": 27.57307313,
        "stop_id": 400,
        "stop_code": "",
        "stop_lat": 47.16053123,
        "stop_name": "Pasaj Alexandru cel Bun",
        "location_type": 0
    },
    {
        "stop_lon": 27.57312879,
        "stop_id": 401,
        "stop_code": "",
        "stop_lat": 47.16038293,
        "stop_name": "Pasaj Alexandru cel Bun",
        "location_type": 0
    },
    {
        "stop_lon": 27.57438943,
        "stop_id": 402,
        "stop_code": "",
        "stop_lat": 47.15674679,
        "stop_name": "Podul de Piatră",
        "location_type": 0
    },
    {
        "stop_lon": 27.574374,
        "stop_id": 403,
        "stop_code": "",
        "stop_lat": 47.15663974,
        "stop_name": "Podul de Piatră",
        "location_type": 0
    },
    {
        "stop_lon": 27.57726207,
        "stop_id": 404,
        "stop_code": "",
        "stop_lat": 47.15040181,
        "stop_name": "Gara Internațională",
        "location_type": 0
    },
    {
        "stop_lon": 27.57905915,
        "stop_id": 405,
        "stop_code": "",
        "stop_lat": 47.14911582,
        "stop_name": "Gara Internațională",
        "location_type": 0
    },
    {
        "stop_lon": 27.58145485,
        "stop_id": 406,
        "stop_code": "",
        "stop_lat": 47.14751392,
        "stop_name": "Vamă",
        "location_type": 0
    },
    {
        "stop_lon": 27.59005524,
        "stop_id": 407,
        "stop_code": "",
        "stop_lat": 47.14630698,
        "stop_name": "Piața Nicolina",
        "location_type": 0
    },
    {
        "stop_lon": 27.59019842,
        "stop_id": 408,
        "stop_code": "",
        "stop_lat": 47.14638289,
        "stop_name": "Piața Nicolina",
        "location_type": 0
    },
    {
        "stop_lon": 27.62116246,
        "stop_id": 409,
        "stop_code": "",
        "stop_lat": 47.1453899,
        "stop_name": "Piața Ing. Virgil Săhleanu",
        "location_type": 0
    },
    {
        "stop_lon": 27.62948468,
        "stop_id": 410,
        "stop_code": "",
        "stop_lat": 47.14420313,
        "stop_name": "Fabrica de Ulei",
        "location_type": 0
    },
    {
        "stop_lon": 27.62984276,
        "stop_id": 411,
        "stop_code": "",
        "stop_lat": 47.14414766,
        "stop_name": "Fabrica de Ulei",
        "location_type": 0
    },
    {
        "stop_lon": 27.63558,
        "stop_id": 412,
        "stop_code": "",
        "stop_lat": 47.1433943,
        "stop_name": "Tehnoton",
        "location_type": 0
    },
    {
        "stop_lon": 27.63593472,
        "stop_id": 413,
        "stop_code": "",
        "stop_lat": 47.14336334,
        "stop_name": "Tehnoton",
        "location_type": 0
    },
    {
        "stop_lon": 27.64251,
        "stop_id": 414,
        "stop_code": "",
        "stop_lat": 47.14347,
        "stop_name": "Rond Țuțora",
        "location_type": 0
    },
    {
        "stop_lon": 27.62403712,
        "stop_id": 415,
        "stop_code": "",
        "stop_lat": 47.15618676,
        "stop_name": "Tătărași Sud",
        "location_type": 0
    },
    {
        "stop_lon": 27.60845,
        "stop_id": 416,
        "stop_code": "",
        "stop_lat": 47.1615,
        "stop_name": "Tătărași Nord",
        "location_type": 0
    },
    {
        "stop_lon": 27.60602528,
        "stop_id": 417,
        "stop_code": "",
        "stop_lat": 47.16233665,
        "stop_name": "Ateneu",
        "location_type": 0
    },
    {
        "stop_lon": 27.587448,
        "stop_id": 418,
        "stop_code": "",
        "stop_lat": 47.159208,
        "stop_name": "Palatul Culturii",
        "location_type": 0
    },
    {
        "stop_lon": 27.56789982,
        "stop_id": 419,
        "stop_code": "",
        "stop_lat": 47.12341477,
        "stop_name": "Tehnopolis",
        "location_type": 0
    },
    {
        "stop_lon": 27.6001004,
        "stop_id": 420,
        "stop_code": "",
        "stop_lat": 47.15896596,
        "stop_name": "Bucșinescu",
        "location_type": 0
    },
    {
        "stop_lon": 27.60335,
        "stop_id": 421,
        "stop_code": "",
        "stop_lat": 47.15659,
        "stop_name": "Tudor Vladimirescu",
        "location_type": 0
    },
    {
        "stop_lon": 27.60339,
        "stop_id": 422,
        "stop_code": "",
        "stop_lat": 47.1566,
        "stop_name": "Tudor Vladimirescu",
        "location_type": 0
    },
    {
        "stop_lon": 27.5700751,
        "stop_id": 423,
        "stop_code": "",
        "stop_lat": 47.16658874,
        "stop_name": "Gară",
        "location_type": 0
    },
    {
        "stop_lon": 27.5708712,
        "stop_id": 424,
        "stop_code": "",
        "stop_lat": 47.16598499,
        "stop_name": "Gară",
        "location_type": 0
    },
    {
        "stop_lon": 27.59036,
        "stop_id": 425,
        "stop_code": "",
        "stop_lat": 47.1556,
        "stop_name": "Sfântul Lazăr",
        "location_type": 0
    },
    {
        "stop_lon": 27.59113,
        "stop_id": 426,
        "stop_code": "",
        "stop_lat": 47.1569,
        "stop_name": "Sfântul Lazăr",
        "location_type": 0
    },
    {
        "stop_lon": 27.576565,
        "stop_id": 429,
        "stop_code": "",
        "stop_lat": 47.157329,
        "stop_name": "Podul de Piatră",
        "location_type": 0
    },
    {
        "stop_lon": 27.59835,
        "stop_id": 431,
        "stop_code": "",
        "stop_lat": 47.16712,
        "stop_name": "Spital Pașcanu",
        "location_type": 0
    },
    {
        "stop_lon": 27.59798,
        "stop_id": 432,
        "stop_code": "",
        "stop_lat": 47.18019,
        "stop_name": "Complex Roua Residence",
        "location_type": 0
    },
    {
        "stop_lon": 27.59794,
        "stop_id": 433,
        "stop_code": "",
        "stop_lat": 47.18012,
        "stop_name": "Complex Roua Residence",
        "location_type": 0
    },
    {
        "stop_lon": 27.62734,
        "stop_id": 434,
        "stop_code": "",
        "stop_lat": 47.15714,
        "stop_name": "Str. Locotenent Popovici",
        "location_type": 0
    },
    {
        "stop_lon": 27.63014,
        "stop_id": 435,
        "stop_code": "",
        "stop_lat": 47.15897,
        "stop_name": "Str. Aviației",
        "location_type": 0
    },
    {
        "stop_lon": 27.63022,
        "stop_id": 436,
        "stop_code": "",
        "stop_lat": 47.16057,
        "stop_name": "Str. Moților",
        "location_type": 0
    },
    {
        "stop_lon": 27.63048,
        "stop_id": 437,
        "stop_code": "",
        "stop_lat": 47.16216,
        "stop_name": "Str. Mistrețului",
        "location_type": 0
    },
    {
        "stop_lon": 27.62645,
        "stop_id": 438,
        "stop_code": "",
        "stop_lat": 47.161989,
        "stop_name": "Str. Aeroportului",
        "location_type": 0
    },
    {
        "stop_lon": 27.62661,
        "stop_id": 439,
        "stop_code": "",
        "stop_lat": 47.1602,
        "stop_name": "Str. A. Obreja",
        "location_type": 0
    },
    {
        "stop_lon": 27.57008,
        "stop_id": 440,
        "stop_code": "",
        "stop_lat": 47.166,
        "stop_name": "Gară",
        "location_type": 0
    },
    {
        "stop_lon": 27.59816,
        "stop_id": 441,
        "stop_code": "",
        "stop_lat": 47.15198,
        "stop_name": "Școala Ion Ghica",
        "location_type": 0
    },
    {
        "stop_lon": 27.578224,
        "stop_id": 460,
        "stop_code": "",
        "stop_lat": 47.139733,
        "stop_name": "Tudor Neculai",
        "location_type": 0
    },
    {
        "stop_lon": 27.57262,
        "stop_id": 461,
        "stop_code": "",
        "stop_lat": 47.14276,
        "stop_name": "Tudor Neculai",
        "location_type": 0
    },
    {
        "stop_lon": 27.568845,
        "stop_id": 462,
        "stop_code": "",
        "stop_lat": 47.144513,
        "stop_name": "Sos. Voinești",
        "location_type": 0
    },
    {
        "stop_lon": 27.570056,
        "stop_id": 463,
        "stop_code": "",
        "stop_lat": 47.143999,
        "stop_name": "Sos. Voinești",
        "location_type": 0
    },
    {
        "stop_lon": 27.561951,
        "stop_id": 464,
        "stop_code": "",
        "stop_lat": 47.147969,
        "stop_name": "Centrul Maternal Maternus",
        "location_type": 0
    },
    {
        "stop_lon": 27.562088,
        "stop_id": 465,
        "stop_code": "",
        "stop_lat": 47.147836,
        "stop_name": "Centrul Maternal Maternus",
        "location_type": 0
    },
    {
        "stop_lon": 27.549494,
        "stop_id": 466,
        "stop_code": "",
        "stop_lat": 47.145841,
        "stop_name": "Complex Sun City",
        "location_type": 0
    },
    {
        "stop_lon": 27.549408,
        "stop_id": 467,
        "stop_code": "",
        "stop_lat": 47.145779,
        "stop_name": "Complex Sun City",
        "location_type": 0
    },
    {
        "stop_lon": 27.539313,
        "stop_id": 468,
        "stop_code": "",
        "stop_lat": 47.145117,
        "stop_name": "Str. Viilor",
        "location_type": 0
    },
    {
        "stop_lon": 27.540174,
        "stop_id": 469,
        "stop_code": "",
        "stop_lat": 47.145095,
        "stop_name": "Str. Viilor",
        "location_type": 0
    },
    {
        "stop_lon": 27.531919,
        "stop_id": 470,
        "stop_code": "",
        "stop_lat": 47.146289,
        "stop_name": "Str. Constantin Langa",
        "location_type": 0
    },
    {
        "stop_lon": 27.531989,
        "stop_id": 471,
        "stop_code": "",
        "stop_lat": 47.146187,
        "stop_name": "Str. Constantin Langa",
        "location_type": 0
    },
    {
        "stop_lon": 27.526025,
        "stop_id": 472,
        "stop_code": "",
        "stop_lat": 47.145388,
        "stop_name": "Primăria Miroslava",
        "location_type": 0
    },
    {
        "stop_lon": 27.577273,
        "stop_id": 474,
        "stop_code": "",
        "stop_lat": 47.197727,
        "stop_name": "Blocuri Șorogari",
        "location_type": 0
    },
    {
        "stop_lon": 27.59816,
        "stop_id": 476,
        "stop_code": "",
        "stop_lat": 47.17583,
        "stop_name": "Str. Moara de Vânt",
        "location_type": 0
    },
    {
        "stop_lon": 27.57802,
        "stop_id": 477,
        "stop_code": "",
        "stop_lat": 47.1691,
        "stop_name": "Piata Independentei",
        "location_type": 0
    },
    {
        "stop_lon": 27.556,
        "stop_id": 478,
        "stop_code": "",
        "stop_lat": 47.14691,
        "stop_name": "Complex Class Residence",
        "location_type": 0
    },
    {
        "stop_lon": 27.55522,
        "stop_id": 479,
        "stop_code": "",
        "stop_lat": 47.14673,
        "stop_name": "Complex Class Residence",
        "location_type": 0
    },
    {
        "stop_lon": 27.60333,
        "stop_id": 480,
        "stop_code": "",
        "stop_lat": 47.1522,
        "stop_name": "Garaj",
        "location_type": 0
    },
    {
        "stop_lon": 27.60274,
        "stop_id": 481,
        "stop_code": "",
        "stop_lat": 47.15228,
        "stop_name": "Garaj",
        "location_type": 0
    },
    {
        "stop_lon": 27.53593,
        "stop_id": 482,
        "stop_code": "",
        "stop_lat": 47.17102,
        "stop_name": "Depou D",
        "location_type": 0
    },
    {
        "stop_lon": 27.57268,
        "stop_id": 483,
        "stop_code": "",
        "stop_lat": 47.16406,
        "stop_name": "Depou G",
        "location_type": 0
    },
    {
        "stop_lon": 27.589745,
        "stop_id": 484,
        "stop_code": "",
        "stop_lat": 47.166642,
        "stop_name": "Colegiul Economic Administrativ",
        "location_type": 0
    },
    {
        "stop_lon": 27.589496,
        "stop_id": 485,
        "stop_code": "",
        "stop_lat": 47.166802,
        "stop_name": "Colegiul Economic Administrativ",
        "location_type": 0
    },
    {
        "stop_lon": 27.588197,
        "stop_id": 486,
        "stop_code": "",
        "stop_lat": 47.168997,
        "stop_name": "Str. Mihai Eminescu",
        "location_type": 0
    },
    {
        "stop_lon": 27.587958,
        "stop_id": 487,
        "stop_code": "",
        "stop_lat": 47.169071,
        "stop_name": "Str. Mihai Eminescu",
        "location_type": 0
    },
    {
        "stop_lon": 27.583941,
        "stop_id": 488,
        "stop_code": "",
        "stop_lat": 47.172812,
        "stop_name": "Str. Nicolae Bălcescu",
        "location_type": 0
    },
    {
        "stop_lon": 27.583742,
        "stop_id": 489,
        "stop_code": "",
        "stop_lat": 47.172881,
        "stop_name": "Str. Nicolae Bălcescu",
        "location_type": 0
    },
    {
        "stop_lon": 27.581932,
        "stop_id": 490,
        "stop_code": "",
        "stop_lat": 47.174474,
        "stop_name": "Bojdeuca Ion Creangă",
        "location_type": 0
    },
    {
        "stop_lon": 27.581759,
        "stop_id": 491,
        "stop_code": "",
        "stop_lat": 47.17456,
        "stop_name": "Bojdeuca Ion Creangă",
        "location_type": 0
    },
    {
        "stop_lon": 27.579182,
        "stop_id": 492,
        "stop_code": "",
        "stop_lat": 47.176618,
        "stop_name": "Centrul Rezidențial pentru Mame și Copii",
        "location_type": 0
    },
    {
        "stop_lon": 27.579445,
        "stop_id": 493,
        "stop_code": "",
        "stop_lat": 47.176368,
        "stop_name": "Centrul Rezidențial pentru Mame și Copii",
        "location_type": 0
    },
    {
        "stop_lon": 27.575445,
        "stop_id": 494,
        "stop_code": "",
        "stop_lat": 47.178781,
        "stop_name": "Str. Lascăr Catargi",
        "location_type": 0
    },
    {
        "stop_lon": 27.57545,
        "stop_id": 495,
        "stop_code": "",
        "stop_lat": 47.178713,
        "stop_name": "Str. Lascăr Catargi",
        "location_type": 0
    },
    {
        "stop_lon": 27.570283,
        "stop_id": 496,
        "stop_code": "",
        "stop_lat": 47.18311,
        "stop_name": "Str. Mihai Costăchescu",
        "location_type": 0
    },
    {
        "stop_lon": 27.570178,
        "stop_id": 497,
        "stop_code": "",
        "stop_lat": 47.183064,
        "stop_name": "Str. Mihai Costăchescu",
        "location_type": 0
    },
    {
        "stop_lon": 27.567398,
        "stop_id": 498,
        "stop_code": "",
        "stop_lat": 47.186037,
        "stop_name": "Exclusive Residence",
        "location_type": 0
    },
    {
        "stop_lon": 27.567312,
        "stop_id": 499,
        "stop_code": "",
        "stop_lat": 47.185967,
        "stop_name": "Exclusive Residence",
        "location_type": 0
    },
    {
        "stop_lon": 27.565273,
        "stop_id": 500,
        "stop_code": "",
        "stop_lat": 47.188241,
        "stop_name": "Târgușor Copou",
        "location_type": 0
    },
    {
        "stop_lon": 27.565163,
        "stop_id": 501,
        "stop_code": "",
        "stop_lat": 47.188196,
        "stop_name": "Târgușor Copou",
        "location_type": 0
    },
    {
        "stop_lon": 27.562622,
        "stop_id": 502,
        "stop_code": "",
        "stop_lat": 47.192518,
        "stop_name": "Str. Caprelor",
        "location_type": 0
    },
    {
        "stop_lon": 27.562399,
        "stop_id": 503,
        "stop_code": "",
        "stop_lat": 47.192737,
        "stop_name": "Str. Caprelor",
        "location_type": 0
    },
    {
        "stop_lon": 27.552342,
        "stop_id": 504,
        "stop_code": "",
        "stop_lat": 47.203416,
        "stop_name": "Str. Ursulea",
        "location_type": 0
    },
    {
        "stop_lon": 27.552207,
        "stop_id": 505,
        "stop_code": "",
        "stop_lat": 47.203193,
        "stop_name": "Str. Ursulea",
        "location_type": 0
    },
    {
        "stop_lon": 27.55791,
        "stop_id": 506,
        "stop_code": "",
        "stop_lat": 47.2036,
        "stop_name": "Pod Cacaina",
        "location_type": 0
    },
    {
        "stop_lon": 27.60857,
        "stop_id": 508,
        "stop_code": "",
        "stop_lat": 47.16145,
        "stop_name": "Tătărași Nord",
        "location_type": 0
    },
    {
        "stop_lon": 27.60829,
        "stop_id": 509,
        "stop_code": "",
        "stop_lat": 47.16157,
        "stop_name": "Tătărași Nord",
        "location_type": 0
    },
    {
        "stop_lon": 27.6329,
        "stop_id": 510,
        "stop_code": "409",
        "stop_lat": 47.15089,
        "stop_name": "Bd. Chimiei (staţie temporară)",
        "location_type": 0
    },
    {
        "stop_lon": 27.60053,
        "stop_id": 511,
        "stop_code": "",
        "stop_lat": 47.15943,
        "stop_name": "Citadin",
        "location_type": 0
    },
    {
        "stop_lon": 27.69736,
        "stop_id": 512,
        "stop_code": "",
        "stop_lat": 47.13131,
        "stop_name": "Tomesti - Holboca",
        "location_type": 0
    },
    {
        "stop_lon": 27.68617,
        "stop_id": 513,
        "stop_code": "",
        "stop_lat": 47.14843,
        "stop_name": "Holboca",
        "location_type": 0
    },
    {
        "stop_lon": 27.65873,
        "stop_id": 514,
        "stop_code": "",
        "stop_lat": 47.15217,
        "stop_name": "Dancu - Capat",
        "location_type": 0
    },
    {
        "stop_lon": 27.64165,
        "stop_id": 515,
        "stop_code": "",
        "stop_lat": 47.15218,
        "stop_name": "Pod Sf. Ioan",
        "location_type": 0
    },
    {
        "stop_lon": 27.52815,
        "stop_id": 516,
        "stop_code": "",
        "stop_lat": 47.1462,
        "stop_name": "Primaria Miroslava",
        "location_type": 0
    },
    {
        "stop_lon": 27.58808,
        "stop_id": 517,
        "stop_code": "",
        "stop_lat": 47.17494,
        "stop_name": "Bulevardul C.A.Rosetti",
        "location_type": 0
    },
    {
        "stop_lon": 27.59698,
        "stop_id": 518,
        "stop_code": "",
        "stop_lat": 47.19349,
        "stop_name": "Pod Aroneanu",
        "location_type": 0
    },
    {
        "stop_lon": 27.59636,
        "stop_id": 519,
        "stop_code": "",
        "stop_lat": 47.21469,
        "stop_name": "Str. Valea lui Bors - Dorobant",
        "location_type": 0
    },
    {
        "stop_lon": 27.59433,
        "stop_id": 520,
        "stop_code": "",
        "stop_lat": 47.21932,
        "stop_name": "Str. I.C. Bratianu - Dorobant",
        "location_type": 0
    },
    {
        "stop_lon": 27.59487,
        "stop_id": 521,
        "stop_code": "",
        "stop_lat": 47.22372,
        "stop_name": "Rond Dorobant",
        "location_type": 0
    },
    {
        "stop_lon": 27.5957,
        "stop_id": 522,
        "stop_code": "",
        "stop_lat": 47.227,
        "stop_name": "Str. Cuza Voda - Dorobant",
        "location_type": 0
    },
    {
        "stop_lon": 27.59603,
        "stop_id": 523,
        "stop_code": "",
        "stop_lat": 47.22818,
        "stop_name": "Str. M. Kogalniceanu - Dorobant",
        "location_type": 0
    },
    {
        "stop_lon": 27.59706,
        "stop_id": 524,
        "stop_code": "",
        "stop_lat": 47.23481,
        "stop_name": "Str. Ionesti - Dorobant",
        "location_type": 0
    },
    {
        "stop_lon": 27.59701,
        "stop_id": 525,
        "stop_code": "",
        "stop_lat": 47.2348,
        "stop_name": "Str. Ionesti - Dorobant",
        "location_type": 0
    },
    {
        "stop_lon": 27.71227,
        "stop_id": 526,
        "stop_code": "",
        "stop_lat": 47.1295,
        "stop_name": "Depozite Tomesti",
        "location_type": 0
    },
    {
        "stop_lon": 27.74719,
        "stop_id": 527,
        "stop_code": "",
        "stop_lat": 47.12423,
        "stop_name": "Str. Pinilor -Tomesti",
        "location_type": 0
    },
    {
        "stop_lon": 27.76274,
        "stop_id": 528,
        "stop_code": "",
        "stop_lat": 47.11928,
        "stop_name": "Chiperesti",
        "location_type": 0
    },
    {
        "stop_lon": 27.78618,
        "stop_id": 529,
        "stop_code": "",
        "stop_lat": 47.13615,
        "stop_name": "Valea Domneasca - Tutora",
        "location_type": 0
    },
    {
        "stop_lon": 27.79271,
        "stop_id": 530,
        "stop_code": "",
        "stop_lat": 47.13488,
        "stop_name": "Centru Tutora",
        "location_type": 0
    },
    {
        "stop_lon": 27.80099,
        "stop_id": 531,
        "stop_code": "",
        "stop_lat": 47.13024,
        "stop_name": "Satul Nou - Tutora",
        "location_type": 0
    },
    {
        "stop_lon": 27.80189,
        "stop_id": 532,
        "stop_code": "",
        "stop_lat": 47.12986,
        "stop_name": "Hotar Tutora",
        "location_type": 0
    },
    {
        "stop_lon": 27.81034,
        "stop_id": 533,
        "stop_code": "",
        "stop_lat": 47.12686,
        "stop_name": "Prutet - Opriseni",
        "location_type": 0
    },
    {
        "stop_lon": 27.81953,
        "stop_id": 534,
        "stop_code": "",
        "stop_lat": 47.13185,
        "stop_name": "Primaverii - Opriseni",
        "location_type": 0
    },
    {
        "stop_lon": 27.82416,
        "stop_id": 535,
        "stop_code": "",
        "stop_lat": 47.12779,
        "stop_name": "Magazin Opriseni",
        "location_type": 0
    },
    {
        "stop_lon": 27.81893,
        "stop_id": 536,
        "stop_code": "",
        "stop_lat": 47.12309,
        "stop_name": "Str. Principala - Opriseni",
        "location_type": 0
    },
    {
        "stop_lon": 27.80974,
        "stop_id": 537,
        "stop_code": "",
        "stop_lat": 47.12754,
        "stop_name": "Putet - Opriseni",
        "location_type": 0
    },
    {
        "stop_lon": 27.71479,
        "stop_id": 538,
        "stop_code": "",
        "stop_lat": 47.12945,
        "stop_name": "Hotar Tutora",
        "location_type": 0
    },
    {
        "stop_lon": 27.79653,
        "stop_id": 539,
        "stop_code": "",
        "stop_lat": 47.13316,
        "stop_name": "Satul Nou - Tutora",
        "location_type": 0
    },
    {
        "stop_lon": 27.79249,
        "stop_id": 540,
        "stop_code": "",
        "stop_lat": 47.13512,
        "stop_name": "Centru Tutora",
        "location_type": 0
    },
    {
        "stop_lon": 27.78545,
        "stop_id": 541,
        "stop_code": "",
        "stop_lat": 47.13608,
        "stop_name": "Valea Domneasca - Tutora",
        "location_type": 0
    },
    {
        "stop_lon": 27.76151,
        "stop_id": 542,
        "stop_code": "",
        "stop_lat": 47.11979,
        "stop_name": "Chiperesti",
        "location_type": 0
    },
    {
        "stop_lon": 27.7476,
        "stop_id": 543,
        "stop_code": "",
        "stop_lat": 47.12429,
        "stop_name": "Str Pinilor - Tomesti",
        "location_type": 0
    },
    {
        "stop_lon": 27.71482,
        "stop_id": 544,
        "stop_code": "",
        "stop_lat": 47.12947,
        "stop_name": "Depozite Tomesti",
        "location_type": 0
    },
    {
        "stop_lon": 27.81047,
        "stop_id": 545,
        "stop_code": "",
        "stop_lat": 47.12729,
        "stop_name": "Prutet Opriseni",
        "location_type": 0
    },
    {
        "stop_lon": 27.71009,
        "stop_id": 546,
        "stop_code": "",
        "stop_lat": 47.11941,
        "stop_name": "Primaria Tomesti",
        "location_type": 0
    },
    {
        "stop_lon": 27.71027,
        "stop_id": 547,
        "stop_code": "",
        "stop_lat": 47.11961,
        "stop_name": "Primaria Tomesti",
        "location_type": 0
    },
    {
        "stop_lon": 27.71829,
        "stop_id": 548,
        "stop_code": "",
        "stop_lat": 47.11623,
        "stop_name": "Str. Codrului - Tomesti",
        "location_type": 0
    },
    {
        "stop_lon": 27.71874,
        "stop_id": 549,
        "stop_code": "",
        "stop_lat": 47.11634,
        "stop_name": "Str Codrului - Tomesti",
        "location_type": 0
    },
    {
        "stop_lon": 27.71621,
        "stop_id": 550,
        "stop_code": "",
        "stop_lat": 47.10729,
        "stop_name": "Goruni",
        "location_type": 0
    },
    {
        "stop_lon": 27.53163,
        "stop_id": 551,
        "stop_code": "",
        "stop_lat": 47.17991,
        "stop_name": "Dealul Zorilor - Rediu",
        "location_type": 0
    },
    {
        "stop_lon": 27.5253,
        "stop_id": 552,
        "stop_code": "",
        "stop_lat": 47.18642,
        "stop_name": "Notariat Rediu",
        "location_type": 0
    },
    {
        "stop_lon": 27.52496,
        "stop_id": 553,
        "stop_code": "",
        "stop_lat": 47.18639,
        "stop_name": "Notariat Rediu",
        "location_type": 0
    },
    {
        "stop_lon": 27.51779,
        "stop_id": 554,
        "stop_code": "",
        "stop_lat": 47.19878,
        "stop_name": "Casablanca - Rediu",
        "location_type": 0
    },
    {
        "stop_lon": 27.51745,
        "stop_id": 555,
        "stop_code": "",
        "stop_lat": 47.19887,
        "stop_name": "Casablanca - Rediu",
        "location_type": 0
    },
    {
        "stop_lon": 27.51271,
        "stop_id": 556,
        "stop_code": "",
        "stop_lat": 47.20568,
        "stop_name": "Esplanada Parc - Rediu",
        "location_type": 0
    },
    {
        "stop_lon": 27.51265,
        "stop_id": 557,
        "stop_code": "",
        "stop_lat": 47.2055,
        "stop_name": "Esplanada Parc - Rediu",
        "location_type": 0
    },
    {
        "stop_lon": 27.59599,
        "stop_id": 558,
        "stop_code": "",
        "stop_lat": 47.22825,
        "stop_name": "Str. M. Kogalniceanu - Dorobant",
        "location_type": 0
    },
    {
        "stop_lon": 27.51023,
        "stop_id": 559,
        "stop_code": "",
        "stop_lat": 47.209,
        "stop_name": "Cherestea Rediu",
        "location_type": 0
    },
    {
        "stop_lon": 27.59512,
        "stop_id": 560,
        "stop_code": "",
        "stop_lat": 47.22472,
        "stop_name": "Str. Cuza Voda - Dorobant",
        "location_type": 0
    },
    {
        "stop_lon": 27.51003,
        "stop_id": 561,
        "stop_code": "",
        "stop_lat": 47.20899,
        "stop_name": "Cherestea Rediu",
        "location_type": 0
    },
    {
        "stop_lon": 27.50552,
        "stop_id": 562,
        "stop_code": "",
        "stop_lat": 47.21266,
        "stop_name": "Primaria Rediu",
        "location_type": 0
    },
    {
        "stop_lon": 27.50647,
        "stop_id": 563,
        "stop_code": "",
        "stop_lat": 47.21574,
        "stop_name": "Strada Betonata - Rediu",
        "location_type": 0
    },
    {
        "stop_lon": 27.50371,
        "stop_id": 564,
        "stop_code": "",
        "stop_lat": 47.21948,
        "stop_name": "Iaz - Rediu",
        "location_type": 0
    },
    {
        "stop_lon": 27.50338,
        "stop_id": 565,
        "stop_code": "",
        "stop_lat": 47.21993,
        "stop_name": "Iaz - Rediu",
        "location_type": 0
    },
    {
        "stop_lon": 27.50472,
        "stop_id": 566,
        "stop_code": "",
        "stop_lat": 47.22716,
        "stop_name": "S.M.A. Breazu",
        "location_type": 0
    },
    {
        "stop_lon": 27.50447,
        "stop_id": 567,
        "stop_code": "",
        "stop_lat": 47.22722,
        "stop_name": "S.M.A. Breazu",
        "location_type": 0
    },
    {
        "stop_lon": 27.51146,
        "stop_id": 568,
        "stop_code": "",
        "stop_lat": 47.21923,
        "stop_name": "Sat Nou - Breazu",
        "location_type": 0
    },
    {
        "stop_lon": 27.51175,
        "stop_id": 569,
        "stop_code": "",
        "stop_lat": 47.21927,
        "stop_name": "Sat Nou - Breazu",
        "location_type": 0
    },
    {
        "stop_lon": 27.5209,
        "stop_id": 570,
        "stop_code": "",
        "stop_lat": 47.21618,
        "stop_name": "Biserica Breazu",
        "location_type": 0
    },
    {
        "stop_lon": 27.521,
        "stop_id": 571,
        "stop_code": "",
        "stop_lat": 47.21629,
        "stop_name": "Biserica Breazu",
        "location_type": 0
    },
    {
        "stop_lon": 27.52632,
        "stop_id": 572,
        "stop_code": "",
        "stop_lat": 47.21512,
        "stop_name": "Blocul Alb - Breazu",
        "location_type": 0
    },
    {
        "stop_lon": 27.49789,
        "stop_id": 573,
        "stop_code": "",
        "stop_lat": 47.23242,
        "stop_name": "Padurea Marzesti - Breazu",
        "location_type": 0
    },
    {
        "stop_lon": 27.4978,
        "stop_id": 574,
        "stop_code": "spre Copou",
        "stop_lat": 47.23233,
        "stop_name": "Padurea Marzesti - Breazu",
        "location_type": 0
    },
    {
        "stop_lon": 27.59472,
        "stop_id": 575,
        "stop_code": "",
        "stop_lat": 47.22355,
        "stop_name": "Rond Dorobant",
        "location_type": 0
    },
    {
        "stop_lon": 27.59428,
        "stop_id": 576,
        "stop_code": "",
        "stop_lat": 47.21858,
        "stop_name": "Str. I.C. Bratianu - Dorobant",
        "location_type": 0
    },
    {
        "stop_lon": 27.49225,
        "stop_id": 577,
        "stop_code": "",
        "stop_lat": 47.23517,
        "stop_name": "Str Tautestilor - Breazu",
        "location_type": 0
    },
    {
        "stop_lon": 27.59563,
        "stop_id": 578,
        "stop_code": "",
        "stop_lat": 47.21482,
        "stop_name": "Baza Nautica - Dorobant",
        "location_type": 0
    },
    {
        "stop_lon": 27.49216,
        "stop_id": 579,
        "stop_code": "",
        "stop_lat": 47.23506,
        "stop_name": "Str Tautestilor - Breazu",
        "location_type": 0
    },
    {
        "stop_lon": 27.46226,
        "stop_id": 580,
        "stop_code": "",
        "stop_lat": 47.2554,
        "stop_name": "Cartierul Austriac - Horlesti",
        "location_type": 0
    },
    {
        "stop_lon": 27.59652,
        "stop_id": 581,
        "stop_code": "",
        "stop_lat": 47.19346,
        "stop_name": "Pod Aroneanu",
        "location_type": 0
    },
    {
        "stop_lon": 27.46212,
        "stop_id": 582,
        "stop_code": "",
        "stop_lat": 47.25545,
        "stop_name": "Cartierul Austriac",
        "location_type": 0
    },
    {
        "stop_lon": 27.45669,
        "stop_id": 583,
        "stop_code": "",
        "stop_lat": 47.25777,
        "stop_name": "Complex Horlesti",
        "location_type": 0
    },
    {
        "stop_lon": 27.58961,
        "stop_id": 584,
        "stop_code": "",
        "stop_lat": 47.16687,
        "stop_name": "Colegiul Economic Administrativ",
        "location_type": 0
    },
    {
        "stop_lon": 27.58953,
        "stop_id": 585,
        "stop_code": "",
        "stop_lat": 47.16677,
        "stop_name": "Colegiul Economic Administrativ",
        "location_type": 0
    },
    {
        "stop_lon": 27.58808,
        "stop_id": 586,
        "stop_code": "",
        "stop_lat": 47.16908,
        "stop_name": "Str Mihai Eminescu",
        "location_type": 0
    },
    {
        "stop_lon": 27.58802,
        "stop_id": 587,
        "stop_code": "",
        "stop_lat": 47.16897,
        "stop_name": "Str. Mihai Eminescu",
        "location_type": 0
    },
    {
        "stop_lon": 27.58379,
        "stop_id": 588,
        "stop_code": "",
        "stop_lat": 47.17291,
        "stop_name": "Str. Nicolaie Balcescu",
        "location_type": 0
    },
    {
        "stop_lon": 27.58378,
        "stop_id": 589,
        "stop_code": "",
        "stop_lat": 47.1728,
        "stop_name": "Str. Nicolaie Balcescu",
        "location_type": 0
    },
    {
        "stop_lon": 27.58194,
        "stop_id": 590,
        "stop_code": "",
        "stop_lat": 47.17453,
        "stop_name": "Bojdeuca Ion Creanga",
        "location_type": 0
    },
    {
        "stop_lon": 27.58182,
        "stop_id": 591,
        "stop_code": "",
        "stop_lat": 47.17449,
        "stop_name": "Bojdeuca Ion Creanga",
        "location_type": 0
    },
    {
        "stop_lon": 27.57895,
        "stop_id": 592,
        "stop_code": "",
        "stop_lat": 47.1767,
        "stop_name": "Centrul Rezidential pentru Mame si Copii",
        "location_type": 0
    },
    {
        "stop_lon": 27.5791,
        "stop_id": 593,
        "stop_code": "",
        "stop_lat": 47.17655,
        "stop_name": "Centrul Rezidential pentru Mame si Copii",
        "location_type": 0
    },
    {
        "stop_lon": 27.57542,
        "stop_id": 594,
        "stop_code": "",
        "stop_lat": 47.17879,
        "stop_name": "Str Lascar Catargi",
        "location_type": 0
    },
    {
        "stop_lon": 27.57534,
        "stop_id": 595,
        "stop_code": "",
        "stop_lat": 47.17872,
        "stop_name": "Str Lascar Catargi",
        "location_type": 0
    },
    {
        "stop_lon": 27.55444,
        "stop_id": 596,
        "stop_code": "",
        "stop_lat": 47.20824,
        "stop_name": "Intersectie Carlig",
        "location_type": 0
    },
    {
        "stop_lon": 27.55419,
        "stop_id": 597,
        "stop_code": "",
        "stop_lat": 47.20841,
        "stop_name": "Intersectie Carlig",
        "location_type": 0
    },